[{"title": "Tirana", "lat": "41.3289", "long": "19.8178"}, {"title": "Vlore", "lat": "40.4667", "long": "19.4833"}, {"title": "Kamez", "lat": "41.3833", "long": "19.7667"}, {"title": "Fier", "lat": "40.7250", "long": "19.5572"}, {"title": "Durres", "lat": "41.3111", "long": "19.4392"}, {"title": "Shkoder", "lat": "42.0681", "long": "19.5119"}, {"title": "Elbasan", "lat": "41.1111", "long": "20.0806"}, {"title": "Korce", "lat": "40.6167", "long": "20.7667"}, {"title": "Berat", "lat": "40.7000", "long": "19.9500"}, {"title": "Gjirokaster", "lat": "40.0667", "long": "20.1333"}, {"title": "Lezhe", "lat": "41.7819", "long": "19.6444"}, {"title": "Kukes", "lat": "42.0833", "long": "20.4167"}, {"title": "Peshkopi", "lat": "41.6833", "long": "20.4281"}, {"title": "Sarande", "lat": "39.8750", "long": "20.0100"}, {"title": "Lushnje", "lat": "40.9333", "long": "19.7000"}, {"title": "Kavaje", "lat": "41.1842", "long": "19.5619"}, {"title": "Pogradec", "lat": "40.9000", "long": "20.6500"}, {"title": "Fushe-Kruje", "lat": "41.4833", "long": "19.7167"}, {"title": "Lac", "lat": "41.6353", "long": "19.7131"}, {"title": "Sukth", "lat": "41.3833", "long": "19.5333"}, {"title": "Bucimas", "lat": "40.8917", "long": "20.6806"}, {"title": "Patos", "lat": "40.6833", "long": "19.6167"}, {"title": "Kucove", "lat": "40.8039", "long": "19.9144"}, {"title": "Librazhd-Qender", "lat": "41.1969", "long": "20.3356"}, {"title": "Kruje", "lat": "41.5000", "long": "19.8000"}, {"title": "Burrel", "lat": "41.6083", "long": "20.0111"}, {"title": "Gramsh", "lat": "40.8667", "long": "20.1833"}, {"title": "Perondi", "lat": "40.7833", "long": "19.9333"}, {"title": "Libonik", "lat": "40.7500", "long": "20.7167"}, {"title": "Belsh", "lat": "40.9833", "long": "19.8833"}, {"title": "Rreshen", "lat": "41.7667", "long": "19.8833"}, {"title": "Librazhd", "lat": "41.1833", "long": "20.3167"}, {"title": "Permet", "lat": "40.2333", "long": "20.3500"}, {"title": "Bajram Curri", "lat": "42.3581", "long": "20.0758"}, {"title": "Tepelene", "lat": "40.2967", "long": "20.0189"}, {"title": "Erseke", "lat": "40.3333", "long": "20.6833"}, {"title": "Corovode", "lat": "40.5000", "long": "20.2167"}, {"title": "Puke", "lat": "42.0500", "long": "19.9000"}]