[{"title": "Baku", "lat": "40.3667", "long": "49.8352"}, {"title": "Sumqayit", "lat": "40.5917", "long": "49.6397"}, {"title": "Ganca", "lat": "40.6828", "long": "46.3606"}, {"title": "Agcabadi", "lat": "40.0528", "long": "47.4614"}, {"title": "Mingacevir", "lat": "40.7700", "long": "47.0489"}, {"title": "Xirdalan", "lat": "40.4486", "long": "49.7564"}, {"title": "Naxcivan", "lat": "39.2089", "long": "45.4122"}, {"title": "Sirvan", "lat": "39.9323", "long": "48.9203"}, {"title": "Saki", "lat": "41.2000", "long": "47.1667"}, {"title": "Yevlax", "lat": "40.6172", "long": "47.1500"}, {"title": "M.A. Rasulzada", "lat": "40.4344", "long": "49.8336"}, {"title": "Lankaran", "lat": "38.7536", "long": "48.8511"}, {"title": "Bilacari", "lat": "40.4314", "long": "49.8081"}, {"title": "Binaqadi", "lat": "40.4661", "long": "49.8278"}, {"title": "Samkir", "lat": "40.8297", "long": "46.0189"}, {"title": "Xacmaz", "lat": "41.4708", "long": "48.8097"}, {"title": "Barda", "lat": "40.3744", "long": "47.1267"}, {"title": "Goycay", "lat": "40.6531", "long": "47.7406"}, {"title": "Qazax", "lat": "41.0933", "long": "45.3661"}, {"title": "Kesla", "lat": "40.3978", "long": "49.8986"}, {"title": "Zaqatala", "lat": "41.6336", "long": "46.6433"}, {"title": "Imisli", "lat": "39.8697", "long": "48.0600"}, {"title": "Sabirabad", "lat": "40.0128", "long": "48.4789"}, {"title": "Salyan", "lat": "39.5950", "long": "48.9792"}, {"title": "Agdas", "lat": "40.6500", "long": "47.4761"}, {"title": "Zabrat", "lat": "40.4872", "long": "49.9525"}, {"title": "Calilabad", "lat": "39.2089", "long": "48.4972"}, {"title": "Goygol", "lat": "40.5905", "long": "46.3239"}, {"title": "Sabuncu", "lat": "40.4425", "long": "49.9481"}, {"title": "Haci Zeynalabdin", "lat": "40.6233", "long": "49.5586"}, {"title": "Bilasuvar", "lat": "39.4583", "long": "48.5450"}, {"title": "Haciqabul", "lat": "40.0433", "long": "48.9356"}, {"title": "Quba", "lat": "41.3597", "long": "48.5125"}, {"title": "Ismayilli", "lat": "40.7900", "long": "48.1519"}, {"title": "Agsu", "lat": "40.5692", "long": "48.4008"}, {"title": "Agstafa", "lat": "41.1189", "long": "45.4539"}, {"title": "Ahmadli", "lat": "40.3839", "long": "49.9475"}, {"title": "Siyazan", "lat": "41.0761", "long": "49.1139"}, {"title": "Saatli", "lat": "39.9311", "long": "48.3697"}, {"title": "Fuzuli", "lat": "39.6003", "long": "47.1431"}, {"title": "Astara", "lat": "38.4561", "long": "48.8786"}, {"title": "Qusar", "lat": "41.4264", "long": "48.4356"}, {"title": "Balaxani", "lat": "40.4617", "long": "49.9200"}, {"title": "Kurdamir", "lat": "40.3383", "long": "48.1608"}, {"title": "Masalli", "lat": "39.0342", "long": "48.6656"}, {"title": "Ucar", "lat": "40.5183", "long": "47.6542"}, {"title": "Neftcala", "lat": "39.3586", "long": "49.2469"}, {"title": "Tovuz", "lat": "40.9922", "long": "45.6289"}, {"title": "Tartar", "lat": "40.3450", "long": "46.9289"}, {"title": "Culfa", "lat": "38.9558", "long": "45.6308"}, {"title": "Beylaqan", "lat": "39.7756", "long": "47.6186"}, {"title": "Qax", "lat": "41.4225", "long": "46.9242"}, {"title": "Daskasan", "lat": "40.5244", "long": "46.1069"}, {"title": "Ordubad", "lat": "38.9081", "long": "46.0278"}, {"title": "Naftalan", "lat": "40.5067", "long": "46.8250"}, {"title": "Samux", "lat": "40.7700", "long": "46.4111"}, {"title": "Gadabay", "lat": "40.5656", "long": "45.8161"}, {"title": "Zardab", "lat": "40.2183", "long": "47.7083"}, {"title": "Balakan", "lat": "41.7258", "long": "46.4083"}, {"title": "Yardimli", "lat": "38.9206", "long": "48.2372"}, {"title": "Goranboy", "lat": "40.6103", "long": "46.7897"}, {"title": "Lerik", "lat": "38.7753", "long": "48.4153"}, {"title": "Kalbacar", "lat": "40.1067", "long": "46.0383"}, {"title": "Oguz", "lat": "41.0708", "long": "47.4583"}, {"title": "Cabrayil", "lat": "39.4000", "long": "47.0261"}, {"title": "Xocavand", "lat": "39.7953", "long": "47.1131"}, {"title": "Babak", "lat": "39.1519", "long": "45.4417"}, {"title": "Qivraq", "lat": "39.3997", "long": "45.1131"}, {"title": "Susa", "lat": "39.7583", "long": "46.7483"}, {"title": "Qobustan", "lat": "40.5367", "long": "48.9328"}, {"title": "Agdam", "lat": "39.9833", "long": "46.9167"}, {"title": "Sahbuz", "lat": "39.4072", "long": "45.5739"}, {"title": "Lacin", "lat": "39.6408", "long": "46.5469"}, {"title": "Heydarabad", "lat": "39.7203", "long": "44.8531"}, {"title": "Xizi", "lat": "40.9078", "long": "49.0733"}, {"title": "Xocali", "lat": "39.9111", "long": "46.7892"}, {"title": "Qubadli", "lat": "39.3439", "long": "46.5797"}, {"title": "Sarur", "lat": "39.5544", "long": "44.9826"}, {"title": "Qabala", "lat": "40.9825", "long": "47.8491"}, {"title": "Davaci", "lat": "41.2012", "long": "48.9871"}, {"title": "Qaracuxur", "lat": "40.3967", "long": "49.9736"}, {"title": "Hovsan", "lat": "40.3744", "long": "50.0853"}, {"title": "Bakixanov", "lat": "40.4217", "long": "49.9644"}, {"title": "Satrovka", "lat": "39.9319", "long": "48.9203"}, {"title": "Xankandi", "lat": "39.8153", "long": "46.7519"}, {"title": "Mastaga", "lat": "40.5328", "long": "50.0039"}, {"title": "Qazyan", "lat": "39.2914", "long": "46.6689"}, {"title": "Lokbatan", "lat": "40.3272", "long": "49.7300"}, {"title": "Buzovna", "lat": "40.5161", "long": "50.1164"}, {"title": "Amircan", "lat": "40.4264", "long": "49.9836"}, {"title": "Asagi Goycali", "lat": "41.1158", "long": "45.4853"}, {"title": "Bina", "lat": "40.4539", "long": "50.0764"}, {"title": "Mardakan", "lat": "40.4922", "long": "50.1389"}, {"title": "Samaxi", "lat": "40.6303", "long": "48.6414"}, {"title": "Sahil", "lat": "40.2200", "long": "49.5714"}, {"title": "Yeni Suraxani", "lat": "40.4311", "long": "50.0361"}, {"title": "Hindarx", "lat": "40.0700", "long": "47.2047"}, {"title": "Qazyan", "lat": "40.4425", "long": "47.6767"}, {"title": "Arkivan", "lat": "39.0183", "long": "48.6500"}, {"title": "Suvalan", "lat": "40.4889", "long": "50.2069"}, {"title": "Qobustan", "lat": "40.0842", "long": "49.4158"}, {"title": "Corat", "lat": "40.5725", "long": "49.7064"}, {"title": "Nehram", "lat": "39.1122", "long": "45.4611"}, {"title": "Pirallahi", "lat": "40.4708", "long": "50.3217"}, {"title": "Bas Goynuk", "lat": "41.3228", "long": "47.1133"}, {"title": "Qazmalar", "lat": "40.9814", "long": "47.8458"}, {"title": "Quzanli", "lat": "40.1600", "long": "47.1722"}, {"title": "Alat", "lat": "39.9411", "long": "49.4061"}, {"title": "Liman", "lat": "38.8733", "long": "48.8139"}, {"title": "Zira", "lat": "40.3636", "long": "50.2903"}, {"title": "Xudat", "lat": "41.6281", "long": "48.6828"}, {"title": "Saray", "lat": "40.5322", "long": "49.7164"}, {"title": "Asagi Ayibli", "lat": "40.9368", "long": "45.8258"}, {"title": "Aliabad", "lat": "41.4783", "long": "46.6175"}, {"title": "Turkan", "lat": "40.3639", "long": "50.2150"}, {"title": "Qovlar", "lat": "40.9419", "long": "45.7358"}, {"title": "Goytapa", "lat": "39.1167", "long": "48.5953"}, {"title": "Sadarak", "lat": "39.7175", "long": "44.8764"}, {"title": "Vandam", "lat": "40.9447", "long": "47.9411"}, {"title": "Qizilhacili", "lat": "40.5808", "long": "46.8503"}, {"title": "Asagi Quscu", "lat": "40.9533", "long": "45.6792"}, {"title": "Agdam", "lat": "40.9053", "long": "45.5564"}]