[{"title": "Dhaka", "lat": "23.7639", "long": "90.3889"}, {"title": "Chattogram", "lat": "22.3350", "long": "91.8325"}, {"title": "Narayanganj", "lat": "23.6200", "long": "90.5000"}, {"title": "Khulna", "lat": "22.8167", "long": "89.5500"}, {"title": "Gazipura", "lat": "23.9889", "long": "90.3750"}, {"title": "Rangapukur", "lat": "25.5600", "long": "89.2500"}, {"title": "Rajshahi", "lat": "24.3667", "long": "88.6000"}, {"title": "Mymensingh", "lat": "24.7539", "long": "90.4031"}, {"title": "Faridpur", "lat": "23.6020", "long": "89.8330"}, {"title": "Sylhet", "lat": "24.9000", "long": "91.8667"}, {"title": "Barura", "lat": "23.3750", "long": "91.0583"}, {"title": "Chauddagram", "lat": "23.2283", "long": "91.3133"}, {"title": "Kushtia", "lat": "23.9101", "long": "89.1231"}, {"title": "Bogra", "lat": "24.8500", "long": "89.3667"}, {"title": "Tangail", "lat": "24.2644", "long": "89.9181"}, {"title": "Tungi", "lat": "23.9000", "long": "90.4100"}, {"title": "Comilla", "lat": "23.4500", "long": "91.2000"}, {"title": "Rangpur", "lat": "25.7500", "long": "89.2444"}, {"title": "Companiganj", "lat": "22.8750", "long": "91.2833"}, {"title": "Dinajpur", "lat": "25.6167", "long": "88.6500"}, {"title": "Brahmanbaria", "lat": "23.9656", "long": "91.1080"}, {"title": "Siddhirganj", "lat": "23.6833", "long": "90.5167"}, {"title": "Feni", "lat": "23.0183", "long": "91.4100"}, {"title": "Jhenida", "lat": "23.5417", "long": "89.1833"}, {"title": "Jessore", "lat": "23.1704", "long": "89.2000"}, {"title": "Banchpar", "lat": "23.2000", "long": "90.8000"}, {"title": "Saidpur", "lat": "25.8004", "long": "89.0000"}, {"title": "Nazipur", "lat": "25.0415", "long": "88.7605"}, {"title": "Barishal", "lat": "22.7000", "long": "90.3667"}, {"title": "Cox's Bazar", "lat": "21.4272", "long": "92.0050"}, {"title": "Chuadanga", "lat": "23.6440", "long": "88.8556"}, {"title": "Satkhira", "lat": "22.7188", "long": "89.0713"}, {"title": "Narsingdi", "lat": "23.9167", "long": "90.7167"}, {"title": "Pabna", "lat": "24.0167", "long": "89.2167"}, {"title": "Sirajganj", "lat": "24.4500", "long": "89.7500"}, {"title": "Jamalpur", "lat": "24.9004", "long": "89.9500"}, {"title": "Brahmanpara", "lat": "23.6167", "long": "91.1083"}, {"title": "Naogaon", "lat": "24.8000", "long": "88.9333"}, {"title": "Bhandaria", "lat": "22.4883", "long": "90.0733"}, {"title": "Nawabganj", "lat": "24.6000", "long": "88.2667"}, {"title": "Maijdi", "lat": "22.8333", "long": "91.1000"}, {"title": "Sripur", "lat": "24.2011", "long": "90.4843"}, {"title": "Saidpur", "lat": "25.7781", "long": "88.8975"}, {"title": "Fulgazi", "lat": "23.1333", "long": "91.4333"}, {"title": "Netrakona", "lat": "24.8819", "long": "90.7275"}, {"title": "Bhola", "lat": "22.6863", "long": "90.6461"}, {"title": "Patuakhali", "lat": "22.3542", "long": "90.3181"}, {"title": "Lalmanirhat", "lat": "25.9167", "long": "89.4500"}, {"title": "Raharpur", "lat": "24.8194", "long": "88.3250"}, {"title": "Elenga", "lat": "24.3386", "long": "89.9219"}, {"title": "Muktagacha", "lat": "24.7662", "long": "90.2562"}, {"title": "Sherpur", "lat": "24.6650", "long": "89.4190"}, {"title": "Gopalpur", "lat": "24.5583", "long": "89.9167"}, {"title": "Bharella", "lat": "23.5506", "long": "91.0566"}, {"title": "Kalihati", "lat": "24.3833", "long": "89.9833"}, {"title": "Daganbhuiya", "lat": "22.9127", "long": "91.3181"}, {"title": "Barguna", "lat": "22.1500", "long": "90.1167"}, {"title": "Lohagara", "lat": "22.0181", "long": "92.0974"}, {"title": "Mirzapur", "lat": "24.1083", "long": "90.0917"}, {"title": "Daulatkhan", "lat": "22.6000", "long": "90.7472"}, {"title": "Phulpur", "lat": "24.9550", "long": "90.3573"}, {"title": "Sonagazi", "lat": "22.8492", "long": "91.3928"}, {"title": "Latifpur", "lat": "22.3777", "long": "91.7639"}, {"title": "Goalundo Ghat", "lat": "23.7333", "long": "89.7617"}, {"title": "Habiganj", "lat": "24.3808", "long": "91.4144"}, {"title": "Kaukhali", "lat": "22.6333", "long": "90.0667"}, {"title": "Gaibandha", "lat": "25.3290", "long": "89.5415"}, {"title": "Arankhola", "lat": "24.6610", "long": "90.0884"}, {"title": "Chhagalnaiya", "lat": "23.0395", "long": "91.5146"}, {"title": "Char Fasson", "lat": "22.1861", "long": "90.7597"}, {"title": "Maulavi Bazar", "lat": "24.4808", "long": "91.7644"}, {"title": "Dohazari", "lat": "22.1628", "long": "92.0728"}, {"title": "Nakhyaungcharipara", "lat": "21.4167", "long": "92.1833"}, {"title": "Sitakund", "lat": "22.6200", "long": "91.6600"}, {"title": "Kishmat Dhanbari", "lat": "24.6167", "long": "90.0250"}, {"title": "Chandanais", "lat": "22.2000", "long": "92.0083"}, {"title": "Hatibanda", "lat": "24.2105", "long": "90.1492"}, {"title": "Nagdha Simla", "lat": "24.6143", "long": "89.9166"}, {"title": "Nalchiti", "lat": "22.6350", "long": "90.2700"}, {"title": "Majidpur", "lat": "23.5796", "long": "90.7689"}, {"title": "Sakhipur", "lat": "24.3167", "long": "90.1750"}, {"title": "Parsuram", "lat": "23.2135", "long": "91.4447"}, {"title": "Mathba", "lat": "22.3000", "long": "89.9500"}, {"title": "Duptiair", "lat": "23.9910", "long": "89.7982"}, {"title": "Panchari Bazar", "lat": "23.2900", "long": "91.9000"}, {"title": "Lakshmicharipara", "lat": "22.7900", "long": "91.9000"}, {"title": "Shahbazpur", "lat": "24.0531", "long": "91.1719"}, {"title": "Amtali", "lat": "22.1370", "long": "90.2280"}, {"title": "Manikganj", "lat": "23.8500", "long": "90.0167"}, {"title": "Jagatpur", "lat": "23.6048", "long": "90.7628"}, {"title": "Harinakunda", "lat": "23.6500", "long": "89.0333"}, {"title": "Latifpur", "lat": "24.1181", "long": "90.1478"}, {"title": "Baisari", "lat": "22.7900", "long": "90.1313"}, {"title": "Dhubaria", "lat": "24.0044", "long": "89.8484"}, {"title": "Faradabad", "lat": "23.7445", "long": "90.8772"}]