[{"title": "Bandar Seri Begawan", "lat": "4.8903", "long": "114.9422"}, {"title": "Kuala Belait", "lat": "4.5828", "long": "114.1918"}, {"title": "Bangar", "lat": "4.7086", "long": "115.0739"}, {"title": "Tutong", "lat": "4.8067", "long": "114.6592"}, {"title": "Seria", "lat": "4.6141", "long": "114.3302"}, {"title": "Kampong Tunah Jambu", "lat": "4.9957", "long": "115.0019"}]