[{"title": "Toronto", "lat": "43.7417", "long": "-79.3733"}, {"title": "Montreal", "lat": "45.5089", "long": "-73.5617"}, {"title": "Vancouver", "lat": "49.2500", "long": "-123.1000"}, {"title": "Calgary", "lat": "51.0500", "long": "-114.0667"}, {"title": "Edmonton", "lat": "53.5344", "long": "-113.4903"}, {"title": "Ottawa", "lat": "45.4247", "long": "-75.6950"}, {"title": "Winnipeg", "lat": "49.8844", "long": "-97.1464"}, {"title": "Quebec City", "lat": "46.8139", "long": "-71.2081"}, {"title": "Kitchener", "lat": "43.4186", "long": "-80.4728"}, {"title": "Halifax", "lat": "44.6475", "long": "-63.5906"}, {"title": "Victoria", "lat": "48.4283", "long": "-123.3647"}, {"title": "Mississauga", "lat": "43.6000", "long": "-79.6500"}, {"title": "Hamilton", "lat": "43.2567", "long": "-79.8692"}, {"title": "Brampton", "lat": "43.6833", "long": "-79.7667"}, {"title": "Surrey", "lat": "49.1900", "long": "-122.8489"}, {"title": "Laval", "lat": "45.5833", "long": "-73.7500"}, {"title": "London", "lat": "42.9836", "long": "-81.2497"}, {"title": "Markham", "lat": "43.8767", "long": "-79.2633"}, {"title": "St. Catharines", "lat": "43.1833", "long": "-79.2333"}, {"title": "Niagara Falls", "lat": "43.0600", "long": "-79.1067"}, {"title": "Vaughan", "lat": "43.8333", "long": "-79.5000"}, {"title": "Gatineau", "lat": "45.4833", "long": "-75.6500"}, {"title": "Windsor", "lat": "42.2833", "long": "-83.0000"}, {"title": "Saskatoon", "lat": "52.1333", "long": "-106.6833"}, {"title": "Longueuil", "lat": "45.5333", "long": "-73.5167"}, {"title": "Burnaby", "lat": "49.2667", "long": "-122.9667"}, {"title": "Regina", "lat": "50.4547", "long": "-104.6067"}, {"title": "Richmond", "lat": "49.1667", "long": "-123.1333"}, {"title": "Richmond Hill", "lat": "43.8667", "long": "-79.4333"}, {"title": "Oakville", "lat": "43.4500", "long": "-79.6833"}, {"title": "Burlington", "lat": "43.3167", "long": "-79.8000"}, {"title": "Barrie", "lat": "44.3711", "long": "-79.6769"}, {"title": "Oshawa", "lat": "43.9000", "long": "-78.8500"}, {"title": "Sherbrooke", "lat": "45.4000", "long": "-71.9000"}, {"title": "Saguenay", "lat": "48.4167", "long": "-71.0667"}, {"title": "Levis", "lat": "46.8000", "long": "-71.1833"}, {"title": "Kelowna", "lat": "49.8881", "long": "-119.4956"}, {"title": "Abbotsford", "lat": "49.0500", "long": "-122.3167"}, {"title": "Coquitlam", "lat": "49.2839", "long": "-122.7919"}, {"title": "Trois-Rivieres", "lat": "46.3500", "long": "-72.5500"}, {"title": "Guelph", "lat": "43.5500", "long": "-80.2500"}, {"title": "Cambridge", "lat": "43.3972", "long": "-80.3114"}, {"title": "Whitby", "lat": "43.8833", "long": "-78.9417"}, {"title": "Ajax", "lat": "43.8583", "long": "-79.0364"}, {"title": "Langley", "lat": "49.1044", "long": "-122.5827"}, {"title": "Saanich", "lat": "48.4840", "long": "-123.3810"}, {"title": "Terrebonne", "lat": "45.7000", "long": "-73.6333"}, {"title": "Milton", "lat": "43.5083", "long": "-79.8833"}, {"title": "St. John's", "lat": "47.4817", "long": "-52.7971"}, {"title": "Moncton", "lat": "46.1328", "long": "-64.7714"}, {"title": "Thunder Bay", "lat": "48.3822", "long": "-89.2461"}, {"title": "Dieppe", "lat": "46.0989", "long": "-64.7242"}, {"title": "Waterloo", "lat": "43.4667", "long": "-80.5167"}, {"title": "Delta", "lat": "49.0847", "long": "-123.0586"}, {"title": "Chatham", "lat": "42.4229", "long": "-82.1324"}, {"title": "Red Deer", "lat": "52.2681", "long": "-113.8111"}, {"title": "Kamloops", "lat": "50.6761", "long": "-120.3408"}, {"title": "Newmarket", "lat": "44.0500", "long": "-79.4667"}, {"title": "White Rock", "lat": "49.0250", "long": "-122.8028"}, {"title": "New Westminster", "lat": "49.2069", "long": "-122.9111"}, {"title": "Port Coquitlam", "lat": "49.2625", "long": "-122.7811"}, {"title": "Dollard-des-Ormeaux", "lat": "45.4833", "long": "-73.8167"}, {"title": "Duncan", "lat": "48.7787", "long": "-123.7079"}, {"title": "Cote-Saint-Luc", "lat": "45.4687", "long": "-73.6673"}, {"title": "Sainte-Therese", "lat": "45.6333", "long": "-73.8500"}, {"title": "Saint-Lambert", "lat": "45.5000", "long": "-73.5167"}, {"title": "Kirkland", "lat": "45.4500", "long": "-73.8667"}, {"title": "Westmount", "lat": "45.4833", "long": "-73.6000"}, {"title": "Mont-Royal", "lat": "45.5161", "long": "-73.6431"}, {"title": "Sainte-Marthe-sur-le-Lac", "lat": "45.5300", "long": "-73.9300"}, {"title": "Esquimalt", "lat": "48.4306", "long": "-123.4147"}, {"title": "Deux-Montagnes", "lat": "45.5333", "long": "-73.8833"}, {"title": "L'Ancienne-Lorette", "lat": "46.8000", "long": "-71.3500"}, {"title": "Pincourt", "lat": "45.3833", "long": "-73.9833"}, {"title": "Sidney", "lat": "48.6506", "long": "-123.3986"}, {"title": "Bois-des-Filion", "lat": "45.6667", "long": "-73.7500"}, {"title": "Brantford", "lat": "43.1667", "long": "-80.2500"}, {"title": "Cape Breton", "lat": "46.1389", "long": "-60.1931"}, {"title": "Lethbridge", "lat": "49.6942", "long": "-112.8328"}, {"title": "Saint-Jean-sur-Richelieu", "lat": "45.3167", "long": "-73.2667"}, {"title": "Clarington", "lat": "43.9350", "long": "-78.6083"}, {"title": "Pickering", "lat": "43.8354", "long": "-79.0890"}, {"title": "Nanaimo", "lat": "49.1642", "long": "-123.9364"}, {"title": "Sudbury", "lat": "46.4900", "long": "-81.0100"}, {"title": "North Vancouver", "lat": "49.3641", "long": "-123.0066"}, {"title": "Brossard", "lat": "45.4667", "long": "-73.4500"}, {"title": "Repentigny", "lat": "45.7333", "long": "-73.4667"}, {"title": "Chilliwack", "lat": "49.1577", "long": "-121.9509"}, {"title": "Maple Ridge", "lat": "49.2167", "long": "-122.6000"}, {"title": "Peterborough", "lat": "44.3000", "long": "-78.3167"}, {"title": "Kawartha Lakes", "lat": "44.3500", "long": "-78.7500"}, {"title": "Prince George", "lat": "53.9169", "long": "-122.7494"}, {"title": "Sault Ste. Marie", "lat": "46.5333", "long": "-84.3500"}, {"title": "Sarnia", "lat": "42.9994", "long": "-82.3089"}, {"title": "Wood Buffalo", "lat": "57.6042", "long": "-111.3284"}, {"title": "Chateauguay", "lat": "45.3800", "long": "-73.7500"}, {"title": "Saint-Jerome", "lat": "45.7833", "long": "-74.0000"}, {"title": "Drummondville", "lat": "45.8833", "long": "-72.4833"}, {"title": "Saint John", "lat": "45.2806", "long": "-66.0761"}, {"title": "Caledon", "lat": "43.8667", "long": "-79.8667"}, {"title": "St. Albert", "lat": "53.6303", "long": "-113.6258"}, {"title": "Granby", "lat": "45.4000", "long": "-72.7333"}, {"title": "Medicine Hat", "lat": "50.0417", "long": "-110.6775"}, {"title": "Grande Prairie", "lat": "55.1708", "long": "-118.7947"}, {"title": "St. Thomas", "lat": "42.7750", "long": "-81.1833"}, {"title": "Airdrie", "lat": "51.2917", "long": "-114.0144"}, {"title": "Halton Hills", "lat": "43.6300", "long": "-79.9500"}, {"title": "Saint-Hyacinthe", "lat": "45.6167", "long": "-72.9500"}, {"title": "Lac-Brome", "lat": "45.2167", "long": "-72.5167"}, {"title": "Fredericton", "lat": "45.9636", "long": "-66.6431"}, {"title": "Blainville", "lat": "45.6700", "long": "-73.8800"}, {"title": "Aurora", "lat": "44.0000", "long": "-79.4667"}, {"title": "Welland", "lat": "42.9833", "long": "-79.2333"}, {"title": "North Bay", "lat": "46.3000", "long": "-79.4500"}, {"title": "Beloeil", "lat": "45.5667", "long": "-73.2000"}, {"title": "Belleville", "lat": "44.1667", "long": "-77.3833"}, {"title": "Mirabel", "lat": "45.6500", "long": "-74.0833"}, {"title": "Shawinigan", "lat": "46.5667", "long": "-72.7500"}, {"title": "Brandon", "lat": "49.8483", "long": "-99.9500"}, {"title": "Rimouski", "lat": "48.4500", "long": "-68.5300"}, {"title": "Cornwall", "lat": "45.0275", "long": "-74.7400"}, {"title": "Stouffville", "lat": "43.9667", "long": "-79.2500"}, {"title": "Georgina", "lat": "44.3000", "long": "-79.4333"}, {"title": "Victoriaville", "lat": "46.0500", "long": "-71.9667"}, {"title": "Vernon", "lat": "50.2670", "long": "-119.2720"}, {"title": "Saint-Eustache", "lat": "45.5700", "long": "-73.9000"}, {"title": "Quinte West", "lat": "44.1833", "long": "-77.5667"}, {"title": "Charlottetown", "lat": "46.2403", "long": "-63.1347"}, {"title": "Mascouche", "lat": "45.7500", "long": "-73.6000"}, {"title": "West Vancouver", "lat": "49.3667", "long": "-123.1667"}, {"title": "Salaberry-de-Valleyfield", "lat": "45.2500", "long": "-74.1300"}, {"title": "Rouyn-Noranda", "lat": "48.2333", "long": "-79.0167"}, {"title": "Timmins", "lat": "48.4667", "long": "-81.3333"}, {"title": "Sorel-Tracy", "lat": "46.0333", "long": "-73.1167"}, {"title": "New Tecumseth", "lat": "44.0833", "long": "-79.7500"}, {"title": "Woodstock", "lat": "43.1306", "long": "-80.7467"}, {"title": "Boucherville", "lat": "45.6000", "long": "-73.4500"}, {"title": "Mission", "lat": "49.1337", "long": "-122.3112"}, {"title": "Vaudreuil-Dorion", "lat": "45.4000", "long": "-74.0333"}, {"title": "Brant", "lat": "43.1167", "long": "-80.3667"}, {"title": "Lakeshore", "lat": "42.2399", "long": "-82.6511"}, {"title": "Innisfil", "lat": "44.3000", "long": "-79.5833"}, {"title": "Prince Albert", "lat": "53.2000", "long": "-105.7500"}, {"title": "Langford Station", "lat": "48.4506", "long": "-123.5058"}, {"title": "Bradford West Gwillimbury", "lat": "44.1333", "long": "-79.6333"}, {"title": "Campbell River", "lat": "50.0244", "long": "-125.2475"}, {"title": "Spruce Grove", "lat": "53.5450", "long": "-113.9008"}, {"title": "Moose Jaw", "lat": "50.3933", "long": "-105.5519"}, {"title": "Penticton", "lat": "49.4911", "long": "-119.5886"}, {"title": "Port Moody", "lat": "49.2831", "long": "-122.8317"}, {"title": "Leamington", "lat": "42.0667", "long": "-82.5833"}, {"title": "East Kelowna", "lat": "49.8625", "long": "-119.5833"}, {"title": "Val-d'Or", "lat": "48.1000", "long": "-77.7833"}, {"title": "Owen Sound", "lat": "44.5667", "long": "-80.9333"}, {"title": "Stratford", "lat": "43.3708", "long": "-80.9819"}, {"title": "Lloydminster", "lat": "53.2783", "long": "-110.0050"}, {"title": "Pointe-Claire", "lat": "45.4500", "long": "-73.8167"}, {"title": "Orillia", "lat": "44.6000", "long": "-79.4167"}, {"title": "Alma", "lat": "48.5500", "long": "-71.6500"}, {"title": "Orangeville", "lat": "43.9167", "long": "-80.1167"}, {"title": "Fort Erie", "lat": "42.9167", "long": "-79.0167"}, {"title": "LaSalle", "lat": "42.2167", "long": "-83.0667"}, {"title": "Sainte-Julie", "lat": "45.5833", "long": "-73.3333"}, {"title": "Leduc", "lat": "53.2594", "long": "-113.5492"}, {"title": "North Cowichan", "lat": "48.8236", "long": "-123.7192"}, {"title": "Chambly", "lat": "45.4311", "long": "-73.2873"}, {"title": "Okotoks", "lat": "50.7250", "long": "-113.9750"}, {"title": "Sept-Iles", "lat": "50.2167", "long": "-66.3833"}, {"title": "Centre Wellington", "lat": "43.7000", "long": "-80.3667"}, {"title": "Saint-Constant", "lat": "45.3700", "long": "-73.5700"}, {"title": "Grimsby", "lat": "43.2000", "long": "-79.5500"}, {"title": "Boisbriand", "lat": "45.6200", "long": "-73.8300"}, {"title": "Conception Bay South", "lat": "47.5167", "long": "-52.9833"}, {"title": "Saint-Bruno-de-Montarville", "lat": "45.5333", "long": "-73.3500"}, {"title": "Cochrane", "lat": "51.1890", "long": "-114.4670"}, {"title": "Thetford Mines", "lat": "46.1000", "long": "-71.3000"}, {"title": "Courtenay", "lat": "49.6878", "long": "-124.9944"}, {"title": "Magog", "lat": "45.2667", "long": "-72.1500"}, {"title": "Whitehorse", "lat": "60.7029", "long": "-135.0691"}, {"title": "Woolwich", "lat": "43.5667", "long": "-80.4833"}, {"title": "Clarence-Rockland", "lat": "45.4833", "long": "-75.2000"}, {"title": "Fort Saskatchewan", "lat": "53.7128", "long": "-113.2133"}, {"title": "East Gwillimbury", "lat": "44.1333", "long": "-79.4167"}, {"title": "Lincoln", "lat": "43.1300", "long": "-79.4300"}, {"title": "La Prairie", "lat": "45.4200", "long": "-73.5000"}, {"title": "Tecumseh", "lat": "42.2431", "long": "-82.9256"}, {"title": "Mount Pearl Park", "lat": "47.5189", "long": "-52.8058"}, {"title": "Amherstburg", "lat": "42.1000", "long": "-83.0833"}, {"title": "Brockville", "lat": "44.5833", "long": "-75.6833"}, {"title": "Collingwood", "lat": "44.5000", "long": "-80.2167"}, {"title": "Scugog", "lat": "44.0900", "long": "-78.9360"}, {"title": "Kingsville", "lat": "42.1000", "long": "-82.7167"}, {"title": "Baie-Comeau", "lat": "49.2167", "long": "-68.1500"}, {"title": "Paradise", "lat": "47.5333", "long": "-52.8667"}, {"title": "Uxbridge", "lat": "44.1167", "long": "-79.1333"}, {"title": "Essa", "lat": "44.2500", "long": "-79.7833"}, {"title": "Candiac", "lat": "45.3800", "long": "-73.5200"}, {"title": "Oro-Medonte", "lat": "44.5667", "long": "-79.5833"}, {"title": "Varennes", "lat": "45.6833", "long": "-73.4333"}, {"title": "Strathroy-Caradoc", "lat": "42.9575", "long": "-81.6167"}, {"title": "Wasaga Beach", "lat": "44.5206", "long": "-80.0167"}, {"title": "New Glasgow", "lat": "45.5926", "long": "-62.6455"}, {"title": "Wilmot", "lat": "43.4000", "long": "-80.6500"}, {"title": "Essex", "lat": "42.0833", "long": "-82.9000"}, {"title": "Fort St. John", "lat": "56.2465", "long": "-120.8476"}, {"title": "L'Assomption", "lat": "45.8333", "long": "-73.4167"}, {"title": "Saint-Lazare", "lat": "45.4000", "long": "-74.1333"}, {"title": "Chestermere", "lat": "51.0500", "long": "-113.8225"}, {"title": "Huntsville", "lat": "45.3333", "long": "-79.2167"}, {"title": "Corner Brook", "lat": "48.9287", "long": "-57.9260"}, {"title": "Riverview", "lat": "46.0613", "long": "-64.8052"}, {"title": "Lloydminster", "lat": "53.2807", "long": "-110.0350"}, {"title": "Joliette", "lat": "46.0167", "long": "-73.4500"}, {"title": "Yellowknife", "lat": "62.4709", "long": "-114.4053"}, {"title": "Squamish", "lat": "49.7017", "long": "-123.1589"}, {"title": "Riviere-du-Loup", "lat": "47.8333", "long": "-69.5333"}, {"title": "Cobourg", "lat": "43.9667", "long": "-78.1667"}, {"title": "Cranbrook", "lat": "49.5097", "long": "-115.7667"}, {"title": "Beaconsfield", "lat": "45.4333", "long": "-73.8667"}, {"title": "Springwater", "lat": "44.4333", "long": "-79.7333"}, {"title": "Dorval", "lat": "45.4500", "long": "-73.7500"}, {"title": "Thorold", "lat": "43.1167", "long": "-79.2000"}, {"title": "Camrose", "lat": "53.0167", "long": "-112.8333"}, {"title": "South Frontenac", "lat": "44.5081", "long": "-76.4939"}, {"title": "Pitt Meadows", "lat": "49.2333", "long": "-122.6833"}, {"title": "Port Colborne", "lat": "42.8833", "long": "-79.2500"}, {"title": "Quispamsis", "lat": "45.4322", "long": "-65.9462"}, {"title": "Mont-Saint-Hilaire", "lat": "45.5622", "long": "-73.1917"}, {"title": "Bathurst", "lat": "47.6200", "long": "-65.6500"}, {"title": "Saint-Augustin-de-Desmaures", "lat": "46.7333", "long": "-71.4667"}, {"title": "Oak Bay", "lat": "48.4264", "long": "-123.3228"}, {"title": "Salmon Arm", "lat": "50.7022", "long": "-119.2722"}, {"title": "Port Alberni", "lat": "49.2339", "long": "-124.8050"}, {"title": "Miramichi", "lat": "47.0196", "long": "-65.5072"}, {"title": "Niagara-on-the-Lake", "lat": "43.2553", "long": "-79.0717"}, {"title": "Saint-Lin--Laurentides", "lat": "45.8500", "long": "-73.7667"}, {"title": "Beaumont", "lat": "53.3572", "long": "-113.4147"}, {"title": "Middlesex Centre", "lat": "43.0500", "long": "-81.4500"}, {"title": "Inverness", "lat": "46.2000", "long": "-61.1000"}, {"title": "Stony Plain", "lat": "53.5264", "long": "-114.0069"}, {"title": "Petawawa", "lat": "45.9000", "long": "-77.2833"}, {"title": "Pelham", "lat": "43.0333", "long": "-79.3333"}, {"title": "Selwyn", "lat": "44.4167", "long": "-78.3333"}, {"title": "Loyalist", "lat": "44.2500", "long": "-76.7500"}, {"title": "Midland", "lat": "44.7500", "long": "-79.8833"}, {"title": "Colwood", "lat": "48.4236", "long": "-123.4958"}, {"title": "Central Saanich", "lat": "48.5142", "long": "-123.3839"}, {"title": "Sainte-Catherine", "lat": "45.4000", "long": "-73.5800"}, {"title": "Port Hope", "lat": "43.9500", "long": "-78.3000"}, {"title": "Saint-Basile-le-Grand", "lat": "45.5333", "long": "-73.2833"}, {"title": "Swift Current", "lat": "50.2881", "long": "-107.7939"}, {"title": "Edmundston", "lat": "47.3765", "long": "-68.3253"}, {"title": "Russell", "lat": "45.2569", "long": "-75.3583"}, {"title": "North Grenville", "lat": "44.9667", "long": "-75.6500"}, {"title": "Yorkton", "lat": "51.2139", "long": "-102.4628"}, {"title": "Tracadie", "lat": "47.5124", "long": "-64.9101"}, {"title": "Bracebridge", "lat": "45.0333", "long": "-79.3000"}, {"title": "Greater Napanee", "lat": "44.2500", "long": "-76.9500"}, {"title": "Tillsonburg", "lat": "42.8667", "long": "-80.7333"}, {"title": "Steinbach", "lat": "49.5258", "long": "-96.6839"}, {"title": "Hanover", "lat": "49.4433", "long": "-96.8492"}, {"title": "Terrace", "lat": "54.5164", "long": "-128.5997"}, {"title": "Springfield", "lat": "49.9292", "long": "-96.6939"}, {"title": "Gaspe", "lat": "48.8333", "long": "-64.4833"}, {"title": "Kenora", "lat": "49.7667", "long": "-94.4833"}, {"title": "Cold Lake", "lat": "54.4642", "long": "-110.1825"}, {"title": "Summerside", "lat": "46.4000", "long": "-63.7833"}, {"title": "Comox", "lat": "49.6733", "long": "-124.9022"}, {"title": "Sylvan Lake", "lat": "52.3083", "long": "-114.0964"}, {"title": "West Lincoln", "lat": "43.0667", "long": "-79.5667"}, {"title": "Matane", "lat": "48.8500", "long": "-67.5333"}, {"title": "Brooks", "lat": "50.5642", "long": "-111.8989"}, {"title": "Sainte-Anne-des-Plaines", "lat": "45.7617", "long": "-73.8204"}, {"title": "West Nipissing / Nipissing Ouest", "lat": "46.3667", "long": "-79.9167"}, {"title": "Rosemere", "lat": "45.6369", "long": "-73.8000"}, {"title": "Mistassini", "lat": "48.8229", "long": "-72.2154"}, {"title": "Grand Falls", "lat": "48.9578", "long": "-55.6633"}, {"title": "Clearview", "lat": "44.3981", "long": "-80.0742"}, {"title": "St. Clair", "lat": "42.7833", "long": "-82.3500"}, {"title": "Canmore", "lat": "51.0890", "long": "-115.3590"}, {"title": "North Battleford", "lat": "52.7575", "long": "-108.2861"}, {"title": "Pembroke", "lat": "45.8167", "long": "-77.1000"}, {"title": "Mont-Laurier", "lat": "46.5500", "long": "-75.5000"}, {"title": "Strathmore", "lat": "51.0378", "long": "-113.4003"}, {"title": "Saugeen Shores", "lat": "44.4333", "long": "-81.3667"}, {"title": "Thompson", "lat": "55.7433", "long": "-97.8553"}, {"title": "Lavaltrie", "lat": "45.8833", "long": "-73.2833"}, {"title": "High River", "lat": "50.5808", "long": "-113.8744"}, {"title": "Severn", "lat": "44.7500", "long": "-79.5167"}, {"title": "Sainte-Sophie", "lat": "45.8200", "long": "-73.9000"}, {"title": "Saint-Charles-Borromee", "lat": "46.0500", "long": "-73.4667"}, {"title": "Portage La Prairie", "lat": "49.9728", "long": "-98.2919"}, {"title": "Thames Centre", "lat": "43.0300", "long": "-81.0800"}, {"title": "Mississippi Mills", "lat": "45.2167", "long": "-76.2000"}, {"title": "Powell River", "lat": "49.8353", "long": "-124.5247"}, {"title": "South Glengarry", "lat": "45.2000", "long": "-74.5833"}, {"title": "North Perth", "lat": "43.7300", "long": "-80.9500"}, {"title": "Mercier", "lat": "45.3200", "long": "-73.7500"}, {"title": "South Stormont", "lat": "45.0833", "long": "-74.9667"}, {"title": "Saint-Colomban", "lat": "45.7300", "long": "-74.1300"}, {"title": "Lacombe", "lat": "52.4683", "long": "-113.7369"}, {"title": "Sooke", "lat": "48.3761", "long": "-123.7378"}, {"title": "Dawson Creek", "lat": "55.7606", "long": "-120.2356"}, {"title": "Lake Country", "lat": "50.0833", "long": "-119.4142"}, {"title": "Trent Hills", "lat": "44.3142", "long": "-77.8514"}, {"title": "Sainte-Marie", "lat": "46.4500", "long": "-71.0333"}, {"title": "Guelph/Eramosa", "lat": "43.6300", "long": "-80.2200"}, {"title": "Truro", "lat": "45.3647", "long": "-63.2800"}, {"title": "Amos", "lat": "48.5667", "long": "-78.1167"}, {"title": "The Nation / La Nation", "lat": "45.3500", "long": "-75.0333"}, {"title": "Ingersoll", "lat": "43.0392", "long": "-80.8836"}, {"title": "Winkler", "lat": "49.1817", "long": "-97.9397"}, {"title": "Wetaskiwin", "lat": "52.9694", "long": "-113.3769"}, {"title": "Central Elgin", "lat": "42.7667", "long": "-81.1000"}, {"title": "Lachute", "lat": "45.6500", "long": "-74.3333"}, {"title": "West Grey", "lat": "44.1833", "long": "-80.8167"}, {"title": "Parksville", "lat": "49.3150", "long": "-124.3120"}, {"title": "Cowansville", "lat": "45.2000", "long": "-72.7500"}, {"title": "Becancour", "lat": "46.3333", "long": "-72.4333"}, {"title": "Gravenhurst", "lat": "44.9167", "long": "-79.3667"}, {"title": "Perth East", "lat": "43.4700", "long": "-80.9500"}, {"title": "Prince Rupert", "lat": "54.3122", "long": "-130.3271"}, {"title": "Prevost", "lat": "45.8700", "long": "-74.0800"}, {"title": "Sainte-Adele", "lat": "45.9500", "long": "-74.1300"}, {"title": "Kentville", "lat": "45.0775", "long": "-64.4958"}, {"title": "Beauharnois", "lat": "45.3200", "long": "-73.8700"}, {"title": "Les Iles-de-la-Madeleine", "lat": "47.3833", "long": "-61.8667"}, {"title": "Wellington North", "lat": "43.9000", "long": "-80.5700"}, {"title": "St. Andrews", "lat": "50.2700", "long": "-96.9747"}, {"title": "Carleton Place", "lat": "45.1333", "long": "-76.1333"}, {"title": "Whistler", "lat": "50.1208", "long": "-122.9544"}, {"title": "Brighton", "lat": "44.1222", "long": "-77.7642"}, {"title": "Tiny", "lat": "44.6833", "long": "-79.9500"}, {"title": "Gander", "lat": "48.9569", "long": "-54.6089"}, {"title": "Rothesay", "lat": "45.3831", "long": "-65.9969"}, {"title": "Brock", "lat": "44.3167", "long": "-79.0833"}, {"title": "Summerland", "lat": "49.6006", "long": "-119.6778"}, {"title": "Val-des-Monts", "lat": "45.6500", "long": "-75.6667"}, {"title": "Tache", "lat": "49.7081", "long": "-96.6736"}, {"title": "Montmagny", "lat": "46.9833", "long": "-70.5500"}, {"title": "Erin", "lat": "43.7667", "long": "-80.0667"}, {"title": "Kincardine", "lat": "44.1667", "long": "-81.6333"}, {"title": "North Dundas", "lat": "45.0833", "long": "-75.3500"}, {"title": "Wellesley", "lat": "43.5500", "long": "-80.7167"}, {"title": "Estevan", "lat": "49.1392", "long": "-102.9861"}, {"title": "North Saanich", "lat": "48.6142", "long": "-123.4200"}, {"title": "Warman", "lat": "52.3219", "long": "-106.5842"}, {"title": "La Tuque", "lat": "48.0652", "long": "-74.0528"}, {"title": "Norwich", "lat": "42.9833", "long": "-80.6000"}, {"title": "Meaford", "lat": "44.5800", "long": "-80.7300"}, {"title": "Adjala-Tosorontio", "lat": "44.1333", "long": "-79.9333"}, {"title": "Hamilton Township", "lat": "44.0540", "long": "-78.2164"}, {"title": "St. Clements", "lat": "50.2689", "long": "-96.6742"}, {"title": "Saint-Amable", "lat": "45.6500", "long": "-73.3000"}, {"title": "Weyburn", "lat": "49.6611", "long": "-103.8525"}, {"title": "South Dundas", "lat": "44.9167", "long": "-75.2667"}, {"title": "L'Ile-Perrot", "lat": "45.3833", "long": "-73.9500"}, {"title": "Notre-Dame-de-l'Ile-Perrot", "lat": "45.3667", "long": "-73.9333"}, {"title": "Williams Lake", "lat": "52.1294", "long": "-122.1383"}, {"title": "Elliot Lake", "lat": "46.3833", "long": "-82.6500"}, {"title": "Cantley", "lat": "45.5667", "long": "-75.7833"}, {"title": "Nelson", "lat": "49.5000", "long": "-117.2833"}, {"title": "Lambton Shores", "lat": "43.1833", "long": "-81.9000"}, {"title": "Mapleton", "lat": "43.7358", "long": "-80.6681"}, {"title": "Georgian Bluffs", "lat": "44.6500", "long": "-81.0333"}, {"title": "Rawdon", "lat": "46.0500", "long": "-73.7167"}, {"title": "Campbellton", "lat": "48.0050", "long": "-66.6731"}, {"title": "View Royal", "lat": "48.4517", "long": "-123.4339"}, {"title": "Coldstream", "lat": "50.2200", "long": "-119.2481"}, {"title": "Chester", "lat": "44.6500", "long": "-64.3000"}, {"title": "Queens", "lat": "44.0333", "long": "-64.7167"}, {"title": "Selkirk", "lat": "50.1436", "long": "-96.8839"}, {"title": "Saint-Felicien", "lat": "48.6500", "long": "-72.4500"}, {"title": "Hawkesbury", "lat": "45.6000", "long": "-74.6000"}, {"title": "Roberval", "lat": "48.5200", "long": "-72.2300"}, {"title": "Sainte-Agathe-des-Monts", "lat": "46.0500", "long": "-74.2800"}, {"title": "North Dumfries", "lat": "43.3200", "long": "-80.3800"}, {"title": "Rideau Lakes", "lat": "44.6667", "long": "-76.2167"}, {"title": "Sechelt", "lat": "49.4742", "long": "-123.7542"}, {"title": "North Glengarry", "lat": "45.3333", "long": "-74.7333"}, {"title": "South Huron", "lat": "43.3200", "long": "-81.5000"}, {"title": "Marieville", "lat": "45.4333", "long": "-73.1667"}, {"title": "Tay", "lat": "44.7167", "long": "-79.7667"}, {"title": "Temiskaming Shores", "lat": "47.5167", "long": "-79.6833"}, {"title": "Hinton", "lat": "53.4114", "long": "-117.5639"}, {"title": "Saint-Sauveur", "lat": "45.9000", "long": "-74.1700"}, {"title": "Quesnel", "lat": "52.9784", "long": "-122.4927"}, {"title": "Elizabethtown-Kitley", "lat": "44.7000", "long": "-75.8833"}, {"title": "Morinville", "lat": "53.8022", "long": "-113.6497"}, {"title": "Grey Highlands", "lat": "44.3333", "long": "-80.5000"}, {"title": "Stratford", "lat": "46.2167", "long": "-63.0893"}, {"title": "Alfred and Plantagenet", "lat": "45.5667", "long": "-74.9167"}, {"title": "Mont-Tremblant", "lat": "46.1167", "long": "-74.6000"}, {"title": "Martensville", "lat": "52.2897", "long": "-106.6667"}, {"title": "Saint-Raymond", "lat": "46.9000", "long": "-71.8333"}, {"title": "Amherst", "lat": "45.8167", "long": "-64.2167"}, {"title": "Ramara", "lat": "44.6333", "long": "-79.2167"}, {"title": "Leeds and the Thousand Islands", "lat": "44.4500", "long": "-76.0800"}, {"title": "Carignan", "lat": "45.4500", "long": "-73.3000"}, {"title": "Brockton", "lat": "44.1667", "long": "-81.2167"}, {"title": "Laurentian Valley", "lat": "45.7681", "long": "-77.2239"}, {"title": "East St. Paul", "lat": "49.9772", "long": "-97.0103"}, {"title": "Lorraine", "lat": "45.6833", "long": "-73.7833"}, {"title": "Sainte-Julienne", "lat": "45.9700", "long": "-73.7200"}, {"title": "Blackfalds", "lat": "52.3833", "long": "-113.8000"}, {"title": "Malahide", "lat": "42.7928", "long": "-80.9361"}, {"title": "Oromocto", "lat": "45.8488", "long": "-66.4788"}, {"title": "Olds", "lat": "51.7928", "long": "-114.1067"}, {"title": "Huron East", "lat": "43.6300", "long": "-81.2800"}, {"title": "Stanley", "lat": "49.1331", "long": "-98.0656"}, {"title": "Penetanguishene", "lat": "44.7667", "long": "-79.9333"}, {"title": "Qualicum Beach", "lat": "49.3500", "long": "-124.4333"}, {"title": "Notre-Dame-des-Prairies", "lat": "46.0500", "long": "-73.4333"}, {"title": "West Perth", "lat": "43.4700", "long": "-81.2000"}, {"title": "Cavan Monaghan", "lat": "44.2000", "long": "-78.4667"}, {"title": "Arnprior", "lat": "45.4333", "long": "-76.3500"}, {"title": "Smiths Falls", "lat": "44.9000", "long": "-76.0167"}, {"title": "Pont-Rouge", "lat": "46.7500", "long": "-71.7000"}, {"title": "Champlain", "lat": "45.5333", "long": "-74.6500"}, {"title": "Coaticook", "lat": "45.1333", "long": "-71.8000"}, {"title": "Minto", "lat": "43.9167", "long": "-80.8667"}, {"title": "Morden", "lat": "49.1919", "long": "-98.1006"}, {"title": "Mono", "lat": "44.0167", "long": "-80.0667"}, {"title": "Ladysmith", "lat": "48.9975", "long": "-123.8203"}, {"title": "Bridgewater", "lat": "44.3700", "long": "-64.5200"}, {"title": "Corman Park No. 344", "lat": "52.2291", "long": "-106.8002"}, {"title": "Iqaluit", "lat": "63.7598", "long": "-68.5107"}]