[{"title": "N'Djamena", "lat": "12.1100", "long": "15.0500"}, {"title": "Moundou", "lat": "8.5667", "long": "16.0833"}, {"title": "Sarh", "lat": "9.1500", "long": "18.3833"}, {"title": "Abeche", "lat": "13.8331", "long": "20.8347"}, {"title": "Goz-Beida", "lat": "12.2236", "long": "21.4144"}, {"title": "Faya", "lat": "17.9169", "long": "19.1167"}, {"title": "Koumra", "lat": "8.9100", "long": "17.5500"}, {"title": "Am-Timan", "lat": "11.0333", "long": "20.2833"}, {"title": "Doba", "lat": "8.6600", "long": "16.8500"}, {"title": "Bongor", "lat": "10.2806", "long": "15.3722"}, {"title": "Mongo", "lat": "12.1837", "long": "18.7000"}, {"title": "Fada", "lat": "17.1833", "long": "21.5833"}, {"title": "Amdjarass", "lat": "16.0658", "long": "22.8431"}, {"title": "Ati", "lat": "13.2133", "long": "18.3381"}, {"title": "Lai", "lat": "9.4000", "long": "16.3000"}, {"title": "Mao", "lat": "14.1194", "long": "15.3133"}, {"title": "Moussoro", "lat": "13.6333", "long": "16.4833"}, {"title": "Massakory", "lat": "13.0000", "long": "15.7333"}, {"title": "Biltine", "lat": "14.5275", "long": "20.9267"}, {"title": "Bol", "lat": "13.4600", "long": "14.7400"}, {"title": "Massenya", "lat": "11.4000", "long": "16.1667"}, {"title": "Pala", "lat": "9.3646", "long": "14.9073"}, {"title": "Bardai", "lat": "21.3533", "long": "17.0003"}, {"title": "Kelo", "lat": "9.3100", "long": "15.8100"}, {"title": "Yao", "lat": "12.8508", "long": "17.5608"}, {"title": "Lere", "lat": "9.7700", "long": "14.1500"}, {"title": "Cheddra", "lat": "13.4428", "long": "16.0508"}, {"title": "Deressia", "lat": "9.7603", "long": "16.2697"}, {"title": "Fianga", "lat": "9.9153", "long": "15.1375"}, {"title": "Pala Oua", "lat": "9.3500", "long": "14.9667"}, {"title": "Iriba", "lat": "15.1167", "long": "22.2500"}, {"title": "Oum Hadjer", "lat": "13.2833", "long": "19.6833"}, {"title": "Massaguet", "lat": "12.4742", "long": "15.4428"}, {"title": "Bitkine", "lat": "11.9817", "long": "18.2125"}, {"title": "Dourbali", "lat": "11.8050", "long": "15.8647"}, {"title": "Guelendeng", "lat": "10.9183", "long": "15.5486"}, {"title": "Kyabe", "lat": "9.4514", "long": "18.9447"}, {"title": "Bokoro", "lat": "12.3667", "long": "17.0500"}, {"title": "Bere", "lat": "9.3156", "long": "16.1597"}, {"title": "Bousso", "lat": "10.4825", "long": "16.7161"}, {"title": "Mata", "lat": "14.0436", "long": "21.1611"}, {"title": "Adre", "lat": "13.4667", "long": "22.2000"}, {"title": "Benoy", "lat": "8.9908", "long": "16.3169"}, {"title": "Mangalme", "lat": "12.3547", "long": "19.6139"}, {"title": "Zouar", "lat": "20.4500", "long": "16.5167"}]