[{"title": "Guayaquil", "lat": "-2.1900", "long": "-79.8875"}, {"title": "Quito", "lat": "-0.2200", "long": "-78.5125"}, {"title": "Cuenca", "lat": "-2.8974", "long": "-79.0045"}, {"title": "Santo Domingo de los Colorados", "lat": "-0.2542", "long": "-79.1719"}, {"title": "Machala", "lat": "-3.2667", "long": "-79.9667"}, {"title": "Eloy Alfaro", "lat": "-2.1733", "long": "-79.8311"}, {"title": "Manta", "lat": "-0.9500", "long": "-80.7162"}, {"title": "Portoviejo", "lat": "-1.0561", "long": "-80.4553"}, {"title": "Sucua", "lat": "-2.4600", "long": "-78.1700"}, {"title": "Loja", "lat": "-3.9833", "long": "-79.2000"}, {"title": "Ambato", "lat": "-1.2417", "long": "-78.6197"}, {"title": "Esmeraldas", "lat": "0.9667", "long": "-79.6528"}, {"title": "Quevedo", "lat": "-1.0333", "long": "-79.4500"}, {"title": "Riobamba", "lat": "-1.6731", "long": "-78.6483"}, {"title": "Milagro", "lat": "-2.1347", "long": "-79.5872"}, {"title": "Ibarra", "lat": "0.3627", "long": "-78.1307"}, {"title": "La Libertad", "lat": "-2.2333", "long": "-80.9000"}, {"title": "Babahoyo", "lat": "-1.8167", "long": "-79.5167"}, {"title": "Latacunga", "lat": "-0.9319", "long": "-78.6161"}, {"title": "Tulcan", "lat": "0.8117", "long": "-77.7186"}, {"title": "Nueva Loja", "lat": "0.0847", "long": "-76.8828"}, {"title": "Puerto Francisco de Orellana", "lat": "-0.4625", "long": "-76.9842"}, {"title": "Santa Elena", "lat": "-2.2267", "long": "-80.8583"}, {"title": "Azogues", "lat": "-2.7333", "long": "-78.8333"}, {"title": "Puyo", "lat": "-1.4861", "long": "-78.0028"}, {"title": "Guaranda", "lat": "-1.6000", "long": "-79.0000"}, {"title": "Tena", "lat": "-0.9890", "long": "-77.8159"}, {"title": "Macas", "lat": "-2.3667", "long": "-78.1333"}, {"title": "Puerto Ayora", "lat": "-0.7500", "long": "-90.3167"}, {"title": "Zamora", "lat": "-4.0692", "long": "-78.9567"}, {"title": "Puerto Baquerizo Moreno", "lat": "-0.9025", "long": "-89.6092"}, {"title": "Sangolqui", "lat": "-0.3344", "long": "-78.4475"}, {"title": "Pelileo", "lat": "-1.3306", "long": "-78.5428"}, {"title": "Daule", "lat": "-1.8667", "long": "-79.9833"}, {"title": "Pasaje", "lat": "-3.3269", "long": "-79.8049"}, {"title": "Chone", "lat": "-0.6833", "long": "-80.1000"}, {"title": "Santa Rosa", "lat": "-3.4522", "long": "-79.9617"}, {"title": "Huaquillas", "lat": "-3.4814", "long": "-80.2432"}, {"title": "Montecristi", "lat": "-1.0500", "long": "-80.6667"}, {"title": "Samborondon", "lat": "-1.9611", "long": "-79.7256"}, {"title": "Jipijapa", "lat": "-1.3486", "long": "-80.5786"}, {"title": "Otavalo", "lat": "0.2303", "long": "-78.2625"}, {"title": "Cayambe", "lat": "0.0439", "long": "-78.1561"}, {"title": "Ventanas", "lat": "-1.4500", "long": "-79.4700"}, {"title": "San Jacinto de Buena Fe", "lat": "-0.8986", "long": "-79.4889"}, {"title": "Velasco Ibarra", "lat": "-1.0439", "long": "-79.6383"}, {"title": "Salinas", "lat": "-2.2167", "long": "-80.9501"}, {"title": "La Troncal", "lat": "-2.4000", "long": "-79.3300"}, {"title": "Playas", "lat": "-2.6300", "long": "-80.3900"}, {"title": "Machachi", "lat": "-0.5100", "long": "-78.5700"}, {"title": "Vinces", "lat": "-1.5500", "long": "-79.7333"}, {"title": "La Concordia", "lat": "-0.0067", "long": "-79.3958"}, {"title": "Rosa Zarate", "lat": "0.3300", "long": "-79.4800"}, {"title": "Balzar", "lat": "-1.3600", "long": "-79.9000"}, {"title": "Naranjito", "lat": "-2.1667", "long": "-79.4653"}, {"title": "Naranjal", "lat": "-2.6728", "long": "-79.6150"}, {"title": "Sucre", "lat": "-1.2600", "long": "-80.4400"}, {"title": "La Mana", "lat": "-0.9300", "long": "-79.2200"}, {"title": "San Lorenzo de Esmeraldas", "lat": "1.2658", "long": "-78.8414"}, {"title": "Zaruma", "lat": "-3.6833", "long": "-79.6000"}, {"title": "Catamayo", "lat": "-3.9833", "long": "-79.3500"}, {"title": "Atuntaqui", "lat": "0.3317", "long": "-78.2189"}, {"title": "Guabo", "lat": "-3.2388", "long": "-79.8292"}, {"title": "Pedernales", "lat": "0.0700", "long": "-80.0550"}, {"title": "Bahia de Caraquez", "lat": "-0.6000", "long": "-80.4167"}, {"title": "Puerto Quito", "lat": "0.1272", "long": "-79.2531"}, {"title": "Pedro Carbo", "lat": "-1.8333", "long": "-80.2333"}, {"title": "Valle", "lat": "-2.9500", "long": "-78.9833"}, {"title": "San Antonio de Ibarra", "lat": "0.3627", "long": "-78.1307"}, {"title": "Yaguachi Nuevo", "lat": "-2.1200", "long": "-79.6900"}, {"title": "Calceta", "lat": "-0.8400", "long": "-80.1700"}, {"title": "Baquerizo Moreno", "lat": "-1.9167", "long": "-79.5167"}, {"title": "Camilo Ponce Enriquez", "lat": "-3.0500", "long": "-79.7333"}, {"title": "Pinas", "lat": "-3.6806", "long": "-79.6806"}, {"title": "Valencia", "lat": "-0.9525", "long": "-79.3531"}, {"title": "Valdez", "lat": "1.2500", "long": "-79.0000"}, {"title": "San Gabriel", "lat": "0.5983", "long": "-77.8353"}, {"title": "Alausi", "lat": "-2.1900", "long": "-78.8500"}, {"title": "Ricaurte", "lat": "-2.8667", "long": "-78.9333"}, {"title": "Lomas de Sargentillo", "lat": "-1.8833", "long": "-80.0833"}, {"title": "Patate", "lat": "-1.3167", "long": "-78.5167"}, {"title": "Muisne", "lat": "0.6108", "long": "-80.0186"}, {"title": "Cariamanga", "lat": "-4.3200", "long": "-79.5600"}, {"title": "Banos", "lat": "-1.3964", "long": "-78.4247"}, {"title": "Sinincay", "lat": "-2.8333", "long": "-79.0000"}, {"title": "Macara", "lat": "-4.3833", "long": "-79.9500"}, {"title": "San Miguel de Salcedo", "lat": "-1.0500", "long": "-78.5833"}, {"title": "Catarama", "lat": "-1.5700", "long": "-79.4700"}, {"title": "Banos", "lat": "-2.9000", "long": "-79.0667"}, {"title": "Zumbagua", "lat": "-0.9558", "long": "-78.9017"}, {"title": "Santa Cruz", "lat": "-0.5333", "long": "-90.3500"}, {"title": "Tosagua", "lat": "-0.7800", "long": "-80.2600"}, {"title": "Rocafuerte", "lat": "-0.9200", "long": "-80.4600"}, {"title": "San Vicente", "lat": "-1.9000", "long": "-79.2333"}, {"title": "Balao", "lat": "-2.9100", "long": "-79.8100"}, {"title": "Puerto Villamil", "lat": "-0.9568", "long": "-90.9672"}, {"title": "Yaupi", "lat": "-2.8379", "long": "-77.9357"}]