[{"title": "Addis Ababa", "lat": "9.0300", "long": "38.7400"}, {"title": "Gode", "lat": "5.9527", "long": "43.5516"}, {"title": "Erer Sata", "lat": "9.5667", "long": "41.3833"}, {"title": "Nazret", "lat": "8.5414", "long": "39.2689"}, {"title": "Gonder", "lat": "12.6075", "long": "37.4592"}, {"title": "Mekele", "lat": "13.4969", "long": "39.4769"}, {"title": "Awasa", "lat": "7.0500", "long": "38.4667"}, {"title": "Dire Dawa", "lat": "9.6000", "long": "41.8667"}, {"title": "Bahir Dar", "lat": "11.6000", "long": "37.3833"}, {"title": "Shashemene", "lat": "7.2000", "long": "38.6000"}, {"title": "Dese", "lat": "11.1333", "long": "39.6333"}, {"title": "Sodo", "lat": "6.8550", "long": "37.7808"}, {"title": "Arba Minch'", "lat": "6.0333", "long": "37.5500"}, {"title": "Jima", "lat": "7.6667", "long": "36.8333"}, {"title": "Hosa'ina", "lat": "7.5500", "long": "37.8500"}, {"title": "Harar", "lat": "9.3111", "long": "42.1278"}, {"title": "Jijiga", "lat": "9.3500", "long": "42.8000"}, {"title": "Dila", "lat": "6.4083", "long": "38.3083"}, {"title": "Nek'emte", "lat": "9.0833", "long": "36.5500"}, {"title": "Debre Birhan", "lat": "9.6833", "long": "39.5333"}, {"title": "Kombolcha", "lat": "11.0867", "long": "39.7367"}, {"title": "Debre Mark'os", "lat": "10.3333", "long": "37.7167"}, {"title": "Ferfer", "lat": "5.0833", "long": "45.0833"}, {"title": "Aware", "lat": "8.2667", "long": "44.1500"}, {"title": "Debre Tabor", "lat": "11.8500", "long": "38.0167"}, {"title": "Adigrat", "lat": "14.2667", "long": "39.4500"}, {"title": "Giyon", "lat": "8.5333", "long": "37.9667"}, {"title": "Asela", "lat": "7.9500", "long": "39.1167"}, {"title": "K'ebri Dehar", "lat": "6.7333", "long": "44.2667"}, {"title": "Hagere Hiywet", "lat": "8.9833", "long": "37.8500"}, {"title": "Aksum", "lat": "14.1208", "long": "38.7278"}, {"title": "Semera", "lat": "11.7922", "long": "41.0086"}, {"title": "Adwa", "lat": "14.1667", "long": "38.9000"}, {"title": "Gambela", "lat": "8.2500", "long": "34.5833"}, {"title": "Kwiha", "lat": "13.4769", "long": "39.5450"}, {"title": "Alamat'a", "lat": "12.4167", "long": "39.5500"}, {"title": "Azezo", "lat": "12.5586", "long": "37.4308"}, {"title": "Butajira", "lat": "8.1208", "long": "38.3792"}, {"title": "Wik'ro", "lat": "13.7833", "long": "39.6000"}, {"title": "Welk'it'e", "lat": "8.2833", "long": "37.7833"}, {"title": "Asosa", "lat": "10.0667", "long": "34.5167"}, {"title": "Genet", "lat": "9.0500", "long": "38.5000"}, {"title": "Maychew", "lat": "12.7833", "long": "39.5333"}, {"title": "Bedesa", "lat": "8.9000", "long": "40.7833"}, {"title": "Kemise", "lat": "10.7167", "long": "39.8667"}, {"title": "Mizan Teferi", "lat": "7.0000", "long": "35.5833"}, {"title": "Bonga", "lat": "7.2667", "long": "36.2333"}, {"title": "Bedele", "lat": "8.4500", "long": "36.3500"}, {"title": "Korem", "lat": "12.5000", "long": "39.5167"}, {"title": "Sendafa", "lat": "9.1500", "long": "39.0333"}, {"title": "Negele", "lat": "5.3167", "long": "39.5833"}, {"title": "Debre Zeyit", "lat": "8.7500", "long": "38.9833"}, {"title": "Babile", "lat": "9.2167", "long": "42.3333"}, {"title": "Weldiya", "lat": "11.8306", "long": "39.6000"}, {"title": "Shire", "lat": "14.1000", "long": "38.2833"}, {"title": "Denan", "lat": "6.5000", "long": "43.5000"}, {"title": "Yabelo", "lat": "4.8833", "long": "38.0833"}, {"title": "Warder", "lat": "6.9667", "long": "45.3500"}, {"title": "Adigala", "lat": "10.4236", "long": "42.2333"}, {"title": "Togoch'ale", "lat": "9.6014", "long": "43.3361"}, {"title": "Boditi", "lat": "6.8667", "long": "37.8667"}, {"title": "Mota", "lat": "11.0833", "long": "37.8667"}, {"title": "Finote Selam", "lat": "10.7000", "long": "37.2667"}, {"title": "Dangila", "lat": "11.2667", "long": "36.8333"}, {"title": "Goba", "lat": "7.0000", "long": "39.9833"}, {"title": "Metema", "lat": "12.9667", "long": "36.2000"}, {"title": "Mojo", "lat": "8.6500", "long": "39.0833"}, {"title": "Yirga `Alem", "lat": "6.7500", "long": "38.4167"}, {"title": "Mersa", "lat": "11.6667", "long": "39.6583"}, {"title": "Mek'i", "lat": "8.1500", "long": "38.8167"}, {"title": "Bedesa", "lat": "6.8830", "long": "37.9329"}, {"title": "Gimbi", "lat": "9.1667", "long": "35.8333"}, {"title": "Areka", "lat": "7.0710", "long": "37.7076"}, {"title": "Chagne", "lat": "10.9500", "long": "36.5000"}, {"title": "Dolo Odo", "lat": "4.1667", "long": "42.0667"}, {"title": "Metu", "lat": "8.3000", "long": "35.5833"}, {"title": "Jinka", "lat": "5.7833", "long": "36.5667"}, {"title": "Degeh Bur", "lat": "8.2167", "long": "43.5667"}, {"title": "Dembi Dolo", "lat": "8.5333", "long": "34.8000"}, {"title": "Fiche", "lat": "9.8000", "long": "38.7333"}, {"title": "Shakiso", "lat": "5.7500", "long": "38.9167"}, {"title": "K'olito", "lat": "7.3122", "long": "38.0892"}, {"title": "Werota", "lat": "11.9167", "long": "37.7000"}, {"title": "Agaro", "lat": "7.8500", "long": "36.5833"}, {"title": "Bure", "lat": "10.7000", "long": "37.0667"}, {"title": "Adis Zemen", "lat": "12.1167", "long": "37.7833"}, {"title": "Kobo", "lat": "12.1500", "long": "39.6333"}, {"title": "Dodola", "lat": "6.9833", "long": "39.1833"}, {"title": "Gelemso", "lat": "8.8167", "long": "40.5167"}, {"title": "Himora", "lat": "14.2861", "long": "36.6097"}, {"title": "Asaita", "lat": "11.5667", "long": "41.4333"}, {"title": "Sek'ot'a", "lat": "12.6253", "long": "39.0350"}, {"title": "Ginir", "lat": "7.1333", "long": "40.7000"}, {"title": "Metahara", "lat": "8.9000", "long": "39.9167"}, {"title": "Mi'eso", "lat": "9.2333", "long": "40.7500"}, {"title": "Adet", "lat": "11.2667", "long": "37.4833"}, {"title": "Injibara", "lat": "10.9500", "long": "36.9333"}, {"title": "Welench'iti", "lat": "8.6667", "long": "39.4333"}, {"title": "Debark'", "lat": "13.1333", "long": "37.9000"}, {"title": "Bati", "lat": "11.1833", "long": "40.0167"}, {"title": "Bichena", "lat": "10.4500", "long": "38.2000"}, {"title": "Nejo", "lat": "9.5000", "long": "35.5000"}, {"title": "Gebre Guracha", "lat": "9.8000", "long": "38.4000"}, {"title": "Asasa", "lat": "7.1000", "long": "39.1944"}, {"title": "Aysha", "lat": "10.7500", "long": "42.5667"}, {"title": "Abomsa", "lat": "8.5833", "long": "39.8500"}, {"title": "Nefas Mewch'a", "lat": "11.7333", "long": "38.4667"}, {"title": "Lalibela", "lat": "12.0317", "long": "39.0411"}, {"title": "Cheraro", "lat": "14.3958", "long": "37.7731"}, {"title": "Hirna", "lat": "9.2167", "long": "41.1000"}, {"title": "Huruta", "lat": "8.1500", "long": "39.3500"}, {"title": "Bek'oji", "lat": "7.5833", "long": "39.3333"}, {"title": "Dera", "lat": "8.3333", "long": "39.3167"}, {"title": "Abiy Adi", "lat": "13.6231", "long": "39.0017"}, {"title": "Funyan Bira", "lat": "9.3500", "long": "42.4000"}, {"title": "Dejen", "lat": "10.1667", "long": "38.1333"}, {"title": "Dembecha", "lat": "10.5500", "long": "37.4833"}, {"title": "Gesuba", "lat": "6.7242", "long": "37.5567"}, {"title": "Kelafo", "lat": "5.5889", "long": "44.2056"}, {"title": "Debre Werk'", "lat": "10.6667", "long": "38.1667"}, {"title": "`Alem T'ena", "lat": "8.3000", "long": "38.9500"}, {"title": "Kofele", "lat": "7.0000", "long": "38.7500"}, {"title": "Shinile", "lat": "9.6667", "long": "41.8333"}, {"title": "Dabat", "lat": "12.9842", "long": "37.7650"}, {"title": "Dolo Bay", "lat": "4.1833", "long": "42.0833"}, {"title": "Finch'a'a", "lat": "9.9000", "long": "37.4500"}, {"title": "Awash", "lat": "8.9944", "long": "40.1667"}, {"title": "Chencha", "lat": "6.2500", "long": "37.5667"}, {"title": "Were Ilu", "lat": "10.6000", "long": "39.4333"}, {"title": "Kele", "lat": "6.0833", "long": "38.0333"}, {"title": "Gore", "lat": "8.1490", "long": "35.5370"}, {"title": "Adami Tulu", "lat": "7.8667", "long": "38.7000"}, {"title": "Shende", "lat": "10.6333", "long": "36.9333"}, {"title": "Mega", "lat": "4.0167", "long": "38.2500"}, {"title": "Bike", "lat": "9.5297", "long": "41.1969"}, {"title": "Intich'o", "lat": "14.2667", "long": "39.1500"}]