[{"title": "Helsinki", "lat": "60.1708", "long": "24.9375"}, {"title": "Tampere", "lat": "61.4981", "long": "23.7600"}, {"title": "Espoo", "lat": "60.2056", "long": "24.6556"}, {"title": "Turku", "lat": "60.4500", "long": "22.2667"}, {"title": "Vantaa", "lat": "60.2944", "long": "25.0403"}, {"title": "Oulu", "lat": "65.0142", "long": "25.4719"}, {"title": "Jyvaskyla", "lat": "62.2417", "long": "25.7417"}, {"title": "Kuopio", "lat": "62.8925", "long": "27.6783"}, {"title": "Lahti", "lat": "60.9833", "long": "25.6500"}, {"title": "Kouvola", "lat": "60.8681", "long": "26.7042"}, {"title": "Pori", "lat": "61.4833", "long": "21.8000"}, {"title": "Joensuu", "lat": "62.6000", "long": "29.7500"}, {"title": "Lappeenranta", "lat": "61.0667", "long": "28.1833"}, {"title": "Hameenlinna", "lat": "60.9944", "long": "24.4667"}, {"title": "Vaasa", "lat": "63.1000", "long": "21.6167"}, {"title": "Seinajoki", "lat": "62.7917", "long": "22.8417"}, {"title": "Rovaniemi", "lat": "66.5000", "long": "25.7333"}, {"title": "Mikkeli", "lat": "61.6833", "long": "27.2667"}, {"title": "Kokkola", "lat": "63.8367", "long": "23.1333"}, {"title": "Kajaani", "lat": "64.2311", "long": "27.7194"}, {"title": "Hakkila", "lat": "60.2869", "long": "24.9522"}, {"title": "Mariehamn", "lat": "60.1000", "long": "19.9333"}, {"title": "Kotka", "lat": "60.4667", "long": "26.9417"}, {"title": "Salo", "lat": "60.3861", "long": "23.1250"}, {"title": "Porvoo", "lat": "60.3944", "long": "25.6639"}, {"title": "Lohja", "lat": "60.2500", "long": "24.0667"}, {"title": "Hyvinkaa", "lat": "60.6333", "long": "24.8500"}, {"title": "Nurmijarvi", "lat": "60.4667", "long": "24.8083"}, {"title": "Jarvenpaa", "lat": "60.4750", "long": "25.0917"}, {"title": "Rauma", "lat": "61.1333", "long": "21.5000"}, {"title": "Kirkkonummi", "lat": "60.1167", "long": "24.4167"}, {"title": "Tuusula", "lat": "60.4333", "long": "25.0500"}, {"title": "Kerava", "lat": "60.4000", "long": "25.1000"}, {"title": "Savonlinna", "lat": "61.8681", "long": "28.8861"}, {"title": "Nokia", "lat": "61.4767", "long": "23.5053"}, {"title": "Kaarina", "lat": "60.4000", "long": "22.3667"}, {"title": "Ylojarvi", "lat": "61.5500", "long": "23.5833"}, {"title": "Kangasala", "lat": "61.4639", "long": "24.0650"}, {"title": "Jyvaskylan Maalaiskunta", "lat": "62.2889", "long": "25.7417"}, {"title": "Riihimaki", "lat": "60.7333", "long": "24.7667"}, {"title": "Vihti", "lat": "60.4051", "long": "24.3959"}, {"title": "Raseborg", "lat": "59.9750", "long": "23.4333"}, {"title": "Imatra", "lat": "61.1833", "long": "28.7667"}, {"title": "Sastamala", "lat": "61.3417", "long": "22.9083"}, {"title": "Raahe", "lat": "64.6833", "long": "24.4667"}, {"title": "Raisio", "lat": "60.4858", "long": "22.1692"}, {"title": "Hollola", "lat": "60.9886", "long": "25.5128"}, {"title": "Karhula", "lat": "60.5155", "long": "26.9354"}, {"title": "Lempaala", "lat": "61.3167", "long": "23.7500"}, {"title": "Kemi", "lat": "65.7361", "long": "24.5636"}, {"title": "Iisalmi", "lat": "63.5667", "long": "27.1833"}, {"title": "Tornio", "lat": "65.8500", "long": "24.1500"}, {"title": "Siilinjarvi", "lat": "63.0750", "long": "27.6600"}, {"title": "Kurikka", "lat": "62.6167", "long": "22.4000"}, {"title": "Jamsa", "lat": "61.8667", "long": "25.1833"}, {"title": "Varkaus", "lat": "62.3167", "long": "27.8917"}, {"title": "Klaukkala", "lat": "60.3820", "long": "24.7492"}, {"title": "Valkeakoski", "lat": "61.2667", "long": "24.0333"}, {"title": "Mantsala", "lat": "60.6331", "long": "25.3167"}, {"title": "Aanekoski", "lat": "62.6000", "long": "25.7250"}, {"title": "Hamina", "lat": "60.5667", "long": "27.2000"}, {"title": "Kuusankoski", "lat": "60.9083", "long": "26.6236"}, {"title": "Lieto", "lat": "60.5000", "long": "22.4497"}, {"title": "Jakobstad", "lat": "63.6667", "long": "22.7000"}, {"title": "Heinola", "lat": "61.2000", "long": "26.0333"}, {"title": "Sipoo", "lat": "60.3764", "long": "25.2722"}, {"title": "Korsholm", "lat": "63.1125", "long": "21.6778"}, {"title": "Naantali", "lat": "60.4667", "long": "22.0333"}, {"title": "Haukipudas", "lat": "65.1833", "long": "25.3500"}, {"title": "Laukaa", "lat": "62.4167", "long": "25.9500"}, {"title": "Pirkkala", "lat": "61.4667", "long": "23.6500"}, {"title": "Pieksamaki", "lat": "62.3000", "long": "27.1333"}, {"title": "Kempele", "lat": "64.9125", "long": "25.5083"}, {"title": "Forssa", "lat": "60.8167", "long": "23.6250"}, {"title": "Janakkala", "lat": "60.9167", "long": "24.6500"}, {"title": "Kauhava", "lat": "63.1000", "long": "23.0667"}, {"title": "Loimaa", "lat": "60.8500", "long": "23.0583"}, {"title": "Orimattila", "lat": "60.8042", "long": "25.7333"}, {"title": "Uusikaupunki", "lat": "60.8000", "long": "21.4167"}, {"title": "Kuusamo", "lat": "65.9667", "long": "29.1833"}, {"title": "Loviisa", "lat": "60.4583", "long": "26.2333"}, {"title": "Sippola", "lat": "60.7392", "long": "27.0003"}, {"title": "Vammala", "lat": "61.3417", "long": "22.9083"}, {"title": "Ylivieska", "lat": "64.0750", "long": "24.5333"}, {"title": "Nastola", "lat": "60.9500", "long": "25.9333"}, {"title": "Kontiolahti", "lat": "62.7667", "long": "29.8500"}, {"title": "Ekenas", "lat": "59.9750", "long": "23.4333"}, {"title": "Lapua", "lat": "62.9700", "long": "23.0083"}, {"title": "Kauhajoki", "lat": "62.4319", "long": "22.1794"}, {"title": "Kiiminki", "lat": "65.1333", "long": "25.7750"}, {"title": "Ulvila", "lat": "61.4333", "long": "21.9000"}, {"title": "Lauritsala", "lat": "61.0708", "long": "28.2597"}, {"title": "Kalajoki", "lat": "64.2667", "long": "23.9500"}, {"title": "Pargas", "lat": "60.3000", "long": "22.3000"}, {"title": "Ilmajoki", "lat": "62.7333", "long": "22.5833"}, {"title": "Liperi", "lat": "62.5333", "long": "29.3833"}, {"title": "Eura", "lat": "61.1333", "long": "22.0833"}, {"title": "Alavus", "lat": "62.5917", "long": "23.6167"}, {"title": "Mikkelin Maalaiskunta", "lat": "61.6776", "long": "27.2021"}, {"title": "Vehkalahti", "lat": "60.5756", "long": "27.1439"}, {"title": "Kankaanpaa", "lat": "61.8000", "long": "22.4000"}, {"title": "Lieksa", "lat": "63.3167", "long": "30.0167"}, {"title": "Saaminki", "lat": "61.8675", "long": "28.8786"}, {"title": "Pedersore", "lat": "63.6642", "long": "22.7006"}, {"title": "Valkeala", "lat": "60.9389", "long": "26.7972"}, {"title": "Kivisto", "lat": "60.3236", "long": "24.8453"}, {"title": "Nivala", "lat": "63.9250", "long": "24.9750"}, {"title": "Kitee", "lat": "62.1000", "long": "30.1333"}, {"title": "Nurmo", "lat": "62.8278", "long": "22.9083"}, {"title": "Joutseno", "lat": "61.1230", "long": "28.5015"}, {"title": "Kauniainen", "lat": "60.2167", "long": "24.7333"}, {"title": "Hameenkyro", "lat": "61.6333", "long": "23.2000"}, {"title": "Paimio", "lat": "60.4500", "long": "22.7000"}, {"title": "Sotkamo", "lat": "64.1333", "long": "28.3833"}, {"title": "Huittinen", "lat": "61.1750", "long": "22.7000"}, {"title": "Muurame", "lat": "62.1292", "long": "25.6722"}, {"title": "Liminka", "lat": "64.8083", "long": "25.4167"}, {"title": "Keuruu", "lat": "62.2583", "long": "24.7083"}, {"title": "Alajarvi", "lat": "63.0000", "long": "23.8167"}, {"title": "Lapinlahti", "lat": "63.3667", "long": "27.3833"}, {"title": "Ii", "lat": "65.3167", "long": "25.3722"}, {"title": "Leppavirta", "lat": "62.4917", "long": "27.7875"}, {"title": "Saarijarvi", "lat": "62.7050", "long": "25.2583"}, {"title": "Oulunsalo", "lat": "64.9333", "long": "25.4167"}, {"title": "Masku", "lat": "60.5708", "long": "22.1000"}, {"title": "Hattula", "lat": "61.0556", "long": "24.3708"}, {"title": "Eurajoki", "lat": "61.2000", "long": "21.7333"}, {"title": "Orivesi", "lat": "61.6750", "long": "24.3583"}, {"title": "Narpes", "lat": "62.4667", "long": "21.3333"}, {"title": "Somero", "lat": "60.6333", "long": "23.5167"}, {"title": "Muhos", "lat": "64.8000", "long": "26.0000"}, {"title": "Karkkila", "lat": "60.5333", "long": "24.2167"}, {"title": "Hanko", "lat": "59.8333", "long": "22.9667"}, {"title": "Halikko", "lat": "60.3972", "long": "23.0778"}, {"title": "Karis", "lat": "60.0708", "long": "23.6625"}, {"title": "Kuhmo", "lat": "64.1250", "long": "29.5167"}, {"title": "Sodankyla", "lat": "67.4167", "long": "26.5833"}, {"title": "Hausjarvi", "lat": "60.7884", "long": "25.0247"}, {"title": "Kiuruvesi", "lat": "63.6500", "long": "26.6167"}, {"title": "Poytya", "lat": "60.7167", "long": "22.6000"}, {"title": "Laitila", "lat": "60.8833", "long": "21.7000"}, {"title": "Kemijarvi", "lat": "66.7167", "long": "27.4333"}]