[{"title": "Cayenne", "lat": "4.9330", "long": "-52.3300"}, {"title": "Saint-Laurent-du-Maroni", "lat": "5.4976", "long": "-54.0325"}, {"title": "Kourou", "lat": "5.1600", "long": "-52.6499"}, {"title": "Sinnamary", "lat": "5.3800", "long": "-52.9600"}, {"title": "Saint-Georges", "lat": "3.9105", "long": "-51.8100"}, {"title": "Roura", "lat": "4.7300", "long": "-52.3300"}, {"title": "Iracoubo", "lat": "5.4804", "long": "-53.2200"}]