[{"title": "Gaza", "lat": "31.5069", "long": "34.4560"}, {"title": "Rafah", "lat": "31.2886", "long": "34.2519"}, {"title": "Khan Yunis", "lat": "31.3444", "long": "34.3031"}, {"title": "Jabalya", "lat": "31.5281", "long": "34.4831"}, {"title": "Bayt Lahya", "lat": "31.5539", "long": "34.5014"}, {"title": "Dayr al Balah", "lat": "31.4189", "long": "34.3517"}, {"title": "Bani Suhayla", "lat": "31.3428", "long": "34.3253"}, {"title": "`Abasan al Kabirah", "lat": "31.3237", "long": "34.3476"}, {"title": "Az Zuwaydah", "lat": "31.4284", "long": "34.3659"}]