[{"title": "Georgetown", "lat": "6.8058", "long": "-58.1508"}, {"title": "New Amsterdam", "lat": "6.2500", "long": "-57.5167"}, {"title": "Linden", "lat": "6.0000", "long": "-58.3000"}, {"title": "Bartica", "lat": "6.4000", "long": "-58.6167"}, {"title": "Lethem", "lat": "3.3833", "long": "-59.8000"}, {"title": "Mabaruma", "lat": "8.2000", "long": "-59.7833"}, {"title": "Mahdia", "lat": "5.2667", "long": "-59.1500"}, {"title": "Vreed-en-Hoop", "lat": "6.8076", "long": "-58.1815"}, {"title": "Fort Wellington", "lat": "6.4000", "long": "-57.6167"}, {"title": "Anna Regina", "lat": "7.2633", "long": "-58.4806"}, {"title": "Princetown", "lat": "5.9049", "long": "-57.1391"}, {"title": "Ituni", "lat": "5.5333", "long": "-58.2500"}]