[{"title": "Tegucigalpa", "lat": "14.1000", "long": "-87.2167"}, {"title": "Comayaguela", "lat": "14.0981", "long": "-87.2097"}, {"title": "San Pedro Sula", "lat": "15.5000", "long": "-88.0333"}, {"title": "Choloma", "lat": "15.6136", "long": "-87.9511"}, {"title": "La Ceiba", "lat": "15.7792", "long": "-86.7931"}, {"title": "El Progreso", "lat": "15.4000", "long": "-87.8000"}, {"title": "Villanueva", "lat": "15.3167", "long": "-88.0167"}, {"title": "Ciudad Choluteca", "lat": "13.3011", "long": "-87.1842"}, {"title": "Comayagua", "lat": "14.4522", "long": "-87.6383"}, {"title": "Juticalpa", "lat": "14.6664", "long": "-86.2186"}, {"title": "Puerto Cortes", "lat": "15.8833", "long": "-87.9500"}, {"title": "Catacamas", "lat": "14.8486", "long": "-85.8942"}, {"title": "Olanchito", "lat": "15.4833", "long": "-86.5833"}, {"title": "Yoro", "lat": "15.1333", "long": "-87.1333"}, {"title": "Santa Rosa de Copan", "lat": "14.7667", "long": "-88.7833"}, {"title": "Trujillo", "lat": "15.9186", "long": "-85.9533"}, {"title": "Nacaome", "lat": "13.5333", "long": "-87.4833"}, {"title": "Gracias", "lat": "14.5833", "long": "-88.5833"}, {"title": "Puerto Lempira", "lat": "15.2653", "long": "-83.7744"}, {"title": "La Paz", "lat": "14.3169", "long": "-87.6831"}, {"title": "Santa Barbara", "lat": "14.9167", "long": "-88.2333"}, {"title": "La Esperanza", "lat": "14.3000", "long": "-88.1833"}, {"title": "Yuscaran", "lat": "13.9417", "long": "-86.8519"}, {"title": "Roatan", "lat": "16.3230", "long": "-86.5370"}, {"title": "Nueva Ocotepeque", "lat": "14.4333", "long": "-89.1833"}, {"title": "Tela", "lat": "15.7833", "long": "-87.4667"}, {"title": "Siguatepeque", "lat": "14.6000", "long": "-87.8333"}, {"title": "Danli", "lat": "14.0328", "long": "-86.5669"}, {"title": "Tocoa", "lat": "15.6833", "long": "-86.0000"}, {"title": "La Lima", "lat": "15.4330", "long": "-87.9170"}, {"title": "Intibuca", "lat": "14.3167", "long": "-88.1667"}, {"title": "San Manuel", "lat": "15.3333", "long": "-87.9167"}, {"title": "San Lorenzo", "lat": "13.4217", "long": "-87.4469"}, {"title": "Copan", "lat": "14.8375", "long": "-89.1425"}, {"title": "Talanga", "lat": "14.4047", "long": "-87.0817"}, {"title": "Santa Rita", "lat": "14.8667", "long": "-89.1000"}, {"title": "Bonito Oriental", "lat": "15.7333", "long": "-85.7333"}, {"title": "Guaimaca", "lat": "14.5333", "long": "-86.8167"}, {"title": "Potrerillos", "lat": "15.2167", "long": "-87.9500"}, {"title": "Cedros", "lat": "14.6000", "long": "-87.1167"}, {"title": "Iriona", "lat": "15.9694", "long": "-85.0933"}, {"title": "Santa Rita", "lat": "15.2000", "long": "-87.8833"}, {"title": "Azacualpa", "lat": "15.3667", "long": "-88.5500"}, {"title": "San Marcos", "lat": "14.4000", "long": "-88.9500"}, {"title": "El Paraiso", "lat": "15.0167", "long": "-88.9833"}, {"title": "Campamento", "lat": "14.5500", "long": "-86.6500"}, {"title": "Cofradia", "lat": "15.4168", "long": "-88.1603"}, {"title": "Sulaco", "lat": "14.9167", "long": "-87.2667"}, {"title": "Santa Ana", "lat": "13.9333", "long": "-87.2667"}, {"title": "Yorito", "lat": "15.0600", "long": "-87.2900"}, {"title": "Guajiquiro", "lat": "14.1000", "long": "-87.8333"}, {"title": "San Francisco", "lat": "15.6667", "long": "-87.0333"}, {"title": "La Entrada", "lat": "15.0500", "long": "-88.7333"}, {"title": "San Rafael", "lat": "14.7333", "long": "-88.4167"}, {"title": "San Juan", "lat": "14.4167", "long": "-88.4333"}, {"title": "Brus Laguna", "lat": "15.7500", "long": "-84.4833"}, {"title": "Santa Elena", "lat": "14.0833", "long": "-88.1167"}, {"title": "Santa Ana", "lat": "14.0667", "long": "-87.9500"}, {"title": "Gualcince", "lat": "14.1167", "long": "-88.5500"}, {"title": "La Jigua", "lat": "15.0333", "long": "-88.8000"}, {"title": "San Francisco", "lat": "14.1167", "long": "-88.3667"}, {"title": "San Ignacio", "lat": "14.6500", "long": "-87.0333"}, {"title": "Marale", "lat": "14.9167", "long": "-87.0350"}]