[{"title": "Kingston", "lat": "17.9714", "long": "-76.7931"}, {"title": "Portmore", "lat": "17.9500", "long": "-76.8799"}, {"title": "May Pen", "lat": "17.9650", "long": "-77.2450"}, {"title": "Spanish Town", "lat": "17.9959", "long": "-76.9551"}, {"title": "Montego Bay", "lat": "18.4667", "long": "-77.9167"}, {"title": "Half Way Tree", "lat": "18.0106", "long": "-76.7847"}, {"title": "Mandeville", "lat": "18.0333", "long": "-77.5000"}, {"title": "Savanna-la-Mar", "lat": "18.2167", "long": "-78.1333"}, {"title": "Port Antonio", "lat": "18.1757", "long": "-76.4503"}, {"title": "Saint Ann's Bay", "lat": "18.4360", "long": "-77.2020"}, {"title": "Port Maria", "lat": "18.3702", "long": "-76.8903"}, {"title": "Falmouth", "lat": "18.4900", "long": "-77.6610"}, {"title": "Lucea", "lat": "18.4500", "long": "-78.1833"}, {"title": "Black River", "lat": "18.0257", "long": "-77.8509"}, {"title": "Morant Bay", "lat": "17.8819", "long": "-76.4074"}, {"title": "Old Harbour", "lat": "17.9333", "long": "-77.1167"}, {"title": "Linstead", "lat": "18.1368", "long": "-77.0317"}, {"title": "Ocho Rios", "lat": "18.4167", "long": "-77.1167"}, {"title": "Bog Walk", "lat": "18.1020", "long": "-77.0054"}, {"title": "Ewarton", "lat": "18.1833", "long": "-77.0833"}, {"title": "Port Morant", "lat": "17.9000", "long": "-76.3167"}]