[{"title": "Kuwait City", "lat": "29.3697", "long": "47.9783"}, {"title": "Al Jahra'", "lat": "29.3500", "long": "47.6833"}, {"title": "Abu Hulayfah", "lat": "29.1322", "long": "48.1261"}, {"title": "Al Ahmadi", "lat": "29.0769", "long": "48.0838"}, {"title": "Ar Riqqah", "lat": "29.1489", "long": "48.1057"}]