[{"title": "Riga", "lat": "56.9489", "long": "24.1064"}, {"title": "Daugavpils", "lat": "55.8750", "long": "26.5356"}, {"title": "Liepaja", "lat": "56.5117", "long": "21.0139"}, {"title": "Jelgava", "lat": "56.6483", "long": "23.7139"}, {"title": "Jurmala", "lat": "56.9681", "long": "23.7703"}, {"title": "Ventspils", "lat": "57.3906", "long": "21.5733"}, {"title": "Rezekne", "lat": "56.5127", "long": "27.3427"}, {"title": "Valmiera", "lat": "57.5500", "long": "25.4000"}, {"title": "Ogre", "lat": "56.8186", "long": "24.6056"}, {"title": "Jekabpils", "lat": "56.4994", "long": "25.8783"}, {"title": "Salaspils", "lat": "56.8667", "long": "24.3500"}, {"title": "Marupe", "lat": "56.9069", "long": "24.0583"}, {"title": "Tukums", "lat": "56.9667", "long": "23.1500"}, {"title": "Cesis", "lat": "57.3167", "long": "25.2667"}, {"title": "Sigulda", "lat": "57.1500", "long": "24.8667"}, {"title": "Olaine", "lat": "56.7833", "long": "23.9333"}, {"title": "Kuldiga", "lat": "56.9667", "long": "21.9667"}, {"title": "Bauska", "lat": "56.4083", "long": "24.1931"}, {"title": "Saldus", "lat": "56.6667", "long": "22.5000"}, {"title": "Talsi", "lat": "57.2444", "long": "22.5867"}, {"title": "Dobele", "lat": "56.6167", "long": "23.2667"}, {"title": "Adazi", "lat": "57.0667", "long": "24.3333"}, {"title": "Ludza", "lat": "56.5500", "long": "27.7167"}, {"title": "Kraslava", "lat": "55.8833", "long": "27.1667"}, {"title": "Aizkraukle", "lat": "56.6042", "long": "25.2539"}, {"title": "Livani", "lat": "56.3667", "long": "26.1833"}, {"title": "Gulbene", "lat": "57.1667", "long": "26.7500"}, {"title": "Limbazi", "lat": "57.5167", "long": "24.7167"}, {"title": "Madona", "lat": "56.8500", "long": "26.2167"}, {"title": "Aluksne", "lat": "57.4167", "long": "27.0500"}, {"title": "Preili", "lat": "56.3000", "long": "26.7167"}, {"title": "Balvi", "lat": "57.1333", "long": "27.2500"}, {"title": "Kekava", "lat": "56.8333", "long": "24.2333"}, {"title": "Smiltene", "lat": "57.4333", "long": "25.9000"}, {"title": "Valka", "lat": "57.7667", "long": "26.0000"}, {"title": "Ulbroka", "lat": "56.9333", "long": "24.2833"}, {"title": "Saulkrasti", "lat": "57.2500", "long": "24.4167"}, {"title": "Varaklani", "lat": "56.6000", "long": "26.7500"}, {"title": "Ropazi", "lat": "56.9718", "long": "24.6318"}]