[{"title": "Maseru", "lat": "-29.3100", "long": "27.4800"}, {"title": "Teyateyaneng", "lat": "-29.1511", "long": "27.7425"}, {"title": "Mafeteng", "lat": "-29.8167", "long": "27.2500"}, {"title": "Leribe", "lat": "-28.8734", "long": "28.0416"}, {"title": "Mohale's Hoek", "lat": "-30.1500", "long": "27.4667"}, {"title": "Quthing", "lat": "-30.4001", "long": "27.7002"}, {"title": "Butha-Buthe", "lat": "-28.7833", "long": "28.2333"}, {"title": "Mokhotlong", "lat": "-29.2885", "long": "29.0656"}, {"title": "Thaba-Tseka", "lat": "-29.5333", "long": "28.6000"}, {"title": "Qacha's Nek", "lat": "-30.1167", "long": "28.6833"}, {"title": "Maputsoe", "lat": "-28.8950", "long": "27.9070"}, {"title": "Mazenod", "lat": "-29.4642", "long": "27.4969"}, {"title": "Ratau", "lat": "-29.3828", "long": "27.7892"}, {"title": "Qiloane", "lat": "-29.3625", "long": "27.6319"}, {"title": "Mapoteng", "lat": "-29.1097", "long": "27.9739"}, {"title": "Senekane", "lat": "-29.2525", "long": "27.7433"}, {"title": "Kueneng", "lat": "-29.0161", "long": "27.9981"}, {"title": "Maghalleen", "lat": "-30.0942", "long": "27.4189"}, {"title": "Pitseng", "lat": "-29.0097", "long": "28.2575"}, {"title": "Siloe", "lat": "-29.9836", "long": "27.2792"}, {"title": "Peka", "lat": "-28.9667", "long": "27.7667"}, {"title": "Nako", "lat": "-29.6481", "long": "27.7336"}, {"title": "Ramabitsa", "lat": "-29.7625", "long": "27.6139"}, {"title": "Nyakosoba", "lat": "-29.5047", "long": "27.8692"}, {"title": "Rasebetsane", "lat": "-29.8992", "long": "27.6628"}, {"title": "Mohlanapeng", "lat": "-29.6975", "long": "28.6947"}, {"title": "Seforong", "lat": "-30.1028", "long": "28.1864"}]