[{"title": "Kuala Lumpur", "lat": "3.1478", "long": "101.6953"}, {"title": "Putrajaya", "lat": "2.9300", "long": "101.6900"}, {"title": "Seberang Jaya", "lat": "5.4000", "long": "100.4667"}, {"title": "Klang", "lat": "3.0333", "long": "101.4500"}, {"title": "Ipoh", "lat": "4.5972", "long": "101.0750"}, {"title": "Butterworth", "lat": "5.3992", "long": "100.3639"}, {"title": "George Town", "lat": "5.4144", "long": "100.3292"}, {"title": "Petaling Jaya", "lat": "3.0972", "long": "101.6444"}, {"title": "Kuantan", "lat": "3.8167", "long": "103.3333"}, {"title": "Shah Alam", "lat": "3.0722", "long": "101.5167"}, {"title": "Johor Bahru", "lat": "1.4556", "long": "103.7611"}, {"title": "Kota Bharu", "lat": "6.1333", "long": "102.2500"}, {"title": "Melaka", "lat": "2.1944", "long": "102.2486"}, {"title": "Kota Kinabalu", "lat": "5.9750", "long": "116.0725"}, {"title": "Seremban", "lat": "2.7222", "long": "101.9417"}, {"title": "Sandakan", "lat": "5.8388", "long": "118.1173"}, {"title": "Sungai Petani", "lat": "5.6500", "long": "100.4800"}, {"title": "Kuching", "lat": "1.5575", "long": "110.3439"}, {"title": "Pasir Gudang", "lat": "1.5028", "long": "103.9356"}, {"title": "Kuala Terengganu", "lat": "5.3292", "long": "103.1361"}, {"title": "Sibu", "lat": "2.3000", "long": "111.8167"}, {"title": "Taiping", "lat": "4.8500", "long": "100.7333"}, {"title": "Miri", "lat": "4.3925", "long": "113.9861"}, {"title": "Alor Setar", "lat": "6.1183", "long": "100.3694"}, {"title": "Bukit Mertajam", "lat": "5.3631", "long": "100.4667"}, {"title": "Lahad Datu", "lat": "5.0300", "long": "118.3400"}, {"title": "Muar", "lat": "2.0500", "long": "102.5600"}, {"title": "Kluang", "lat": "2.0336", "long": "103.3194"}, {"title": "Batu Pahat", "lat": "1.8500", "long": "102.9300"}, {"title": "Batu Gajah", "lat": "4.4667", "long": "101.0500"}, {"title": "Bintulu", "lat": "3.1700", "long": "113.0300"}, {"title": "Tawau", "lat": "4.2448", "long": "117.8911"}, {"title": "Teluk Intan", "lat": "4.0259", "long": "101.0213"}, {"title": "Labuan", "lat": "5.3000", "long": "115.2200"}, {"title": "Taman Johor Jaya", "lat": "1.5333", "long": "103.8167"}, {"title": "Kangar", "lat": "6.4333", "long": "100.2000"}, {"title": "Cukai", "lat": "4.2332", "long": "103.4479"}, {"title": "Sarikei", "lat": "2.1256", "long": "111.5219"}, {"title": "Raub", "lat": "3.7931", "long": "101.8569"}, {"title": "Cameron Highlands", "lat": "4.5000", "long": "101.5000"}, {"title": "Kuah", "lat": "6.3167", "long": "99.8500"}, {"title": "Parit Buntar", "lat": "5.1167", "long": "100.5000"}, {"title": "Membakut", "lat": "5.4667", "long": "115.7833"}, {"title": "Kuala Lipis", "lat": "4.1800", "long": "102.0500"}]