[{"title": "Mexico City", "lat": "19.4333", "long": "-99.1333"}, {"title": "Guadalajara", "lat": "20.6767", "long": "-103.3475"}, {"title": "Monterrey", "lat": "25.6667", "long": "-100.3000"}, {"title": "Tijuana", "lat": "32.5250", "long": "-117.0333"}, {"title": "Ecatepec", "lat": "19.6097", "long": "-99.0600"}, {"title": "Leon de los Aldama", "lat": "21.1167", "long": "-101.6833"}, {"title": "Puebla", "lat": "19.0333", "long": "-98.1833"}, {"title": "Zapopan", "lat": "20.7167", "long": "-103.4000"}, {"title": "Juarez", "lat": "31.7386", "long": "-106.4870"}, {"title": "Ciudad Nezahualcoyotl", "lat": "19.4081", "long": "-99.0186"}, {"title": "Mexicali", "lat": "32.6633", "long": "-115.4678"}, {"title": "Nezahualcoyotl", "lat": "19.4006", "long": "-99.0148"}, {"title": "Morelia", "lat": "19.7683", "long": "-101.1894"}, {"title": "Aguascalientes", "lat": "21.8760", "long": "-102.2960"}, {"title": "Naucalpan de Juarez", "lat": "19.4753", "long": "-99.2378"}, {"title": "Cancun", "lat": "21.1606", "long": "-86.8475"}, {"title": "Merida", "lat": "20.9700", "long": "-89.6200"}, {"title": "Chihuahua", "lat": "28.6353", "long": "-106.0889"}, {"title": "Saltillo", "lat": "25.4231", "long": "-100.9919"}, {"title": "Hermosillo", "lat": "29.0989", "long": "-110.9542"}, {"title": "Culiacan", "lat": "24.8069", "long": "-107.3939"}, {"title": "Queretaro", "lat": "20.5875", "long": "-100.3928"}, {"title": "San Luis Potosi", "lat": "22.1511", "long": "-100.9761"}, {"title": "Tlajomulco de Zuniga", "lat": "20.4736", "long": "-103.4431"}, {"title": "Reynosa", "lat": "26.0922", "long": "-98.2778"}, {"title": "Torreon", "lat": "25.5394", "long": "-103.4486"}, {"title": "Guadalupe", "lat": "25.6775", "long": "-100.2597"}, {"title": "Acapulco de Juarez", "lat": "16.8636", "long": "-99.8825"}, {"title": "Tlaquepaque", "lat": "20.6167", "long": "-103.3167"}, {"title": "Tlalnepantla", "lat": "19.5367", "long": "-99.1947"}, {"title": "Durango", "lat": "24.0250", "long": "-104.6675"}, {"title": "Mazatlan", "lat": "23.2167", "long": "-106.4167"}, {"title": "Chimalhuacan", "lat": "19.4167", "long": "-98.9000"}, {"title": "Tuxtla", "lat": "16.7528", "long": "-93.1167"}, {"title": "Irapuato", "lat": "20.6667", "long": "-101.3500"}, {"title": "Tonala", "lat": "20.6167", "long": "-103.2333"}, {"title": "Ensenada", "lat": "31.8578", "long": "-116.6058"}, {"title": "Heroica Matamoros", "lat": "25.8797", "long": "-97.5042"}, {"title": "Ixtapaluca", "lat": "19.3186", "long": "-98.8822"}, {"title": "Tultitlan de Mariano Escobedo", "lat": "19.6450", "long": "-99.1694"}, {"title": "Ciudad Apodaca", "lat": "25.7817", "long": "-100.1886"}, {"title": "Ciudad Lopez Mateos", "lat": "19.5500", "long": "-99.2833"}, {"title": "Celaya", "lat": "20.5222", "long": "-100.8122"}, {"title": "Los Mochis", "lat": "25.7835", "long": "-108.9937"}, {"title": "San Nicolas de los Garza", "lat": "25.7500", "long": "-100.2833"}, {"title": "Veracruz", "lat": "19.1903", "long": "-96.1533"}, {"title": "Xalapa", "lat": "19.5400", "long": "-96.9275"}, {"title": "Tepic", "lat": "21.5083", "long": "-104.8931"}, {"title": "Nuevo Laredo", "lat": "27.4861", "long": "-99.5069"}, {"title": "Nicolas Romero", "lat": "19.5833", "long": "-99.3667"}, {"title": "Tecamac", "lat": "19.7131", "long": "-98.9683"}, {"title": "Orizaba", "lat": "18.8500", "long": "-97.1000"}, {"title": "Villahermosa", "lat": "17.9892", "long": "-92.9281"}, {"title": "Minatitlan", "lat": "17.9833", "long": "-94.5500"}, {"title": "Tapachula", "lat": "14.9000", "long": "-92.2667"}, {"title": "Uruapan", "lat": "19.4208", "long": "-102.0628"}, {"title": "Gomez Palacio", "lat": "25.5611", "long": "-103.4983"}, {"title": "Cuernavaca", "lat": "18.9186", "long": "-99.2342"}, {"title": "Salamanca", "lat": "20.5703", "long": "-101.1972"}, {"title": "Ciudad Obregon", "lat": "27.4939", "long": "-109.9389"}, {"title": "Soledad de Graciano Sanchez", "lat": "22.1833", "long": "-100.9333"}, {"title": "Guasave", "lat": "25.5744", "long": "-108.4706"}, {"title": "Tehuacan", "lat": "18.4617", "long": "-97.3928"}, {"title": "Coatzacoalcos", "lat": "18.1500", "long": "-94.4333"}, {"title": "Playa del Carmen", "lat": "20.6281", "long": "-87.0755"}, {"title": "Chalco", "lat": "19.2647", "long": "-98.8975"}, {"title": "Ciudad Victoria", "lat": "23.7389", "long": "-99.1431"}, {"title": "Ciudad Santa Catarina", "lat": "25.6833", "long": "-100.4500"}, {"title": "Oaxaca", "lat": "17.0606", "long": "-96.7253"}, {"title": "Pachuca", "lat": "20.1000", "long": "-98.7500"}, {"title": "Coacalco", "lat": "19.6333", "long": "-99.0931"}, {"title": "San Juan del Rio", "lat": "20.3833", "long": "-99.9833"}, {"title": "Ciudad General Escobedo", "lat": "25.7933", "long": "-100.1583"}, {"title": "Tampico", "lat": "22.2553", "long": "-97.8686"}, {"title": "Huixquilucan", "lat": "19.3611", "long": "-99.3508"}, {"title": "Heroica Nogales", "lat": "31.3186", "long": "-110.9458"}, {"title": "Nogales", "lat": "31.1833", "long": "-111.0000"}, {"title": "Ciudad Benito Juarez", "lat": "25.6500", "long": "-100.0833"}, {"title": "Campeche", "lat": "19.8500", "long": "-90.5306"}, {"title": "La Paz", "lat": "24.1422", "long": "-110.3108"}, {"title": "Carmen", "lat": "18.4167", "long": "-91.6333"}, {"title": "Monclova", "lat": "26.9103", "long": "-101.4222"}, {"title": "Guadalupe", "lat": "22.7528", "long": "-102.5078"}, {"title": "Puerto Vallarta", "lat": "20.6458", "long": "-105.2222"}, {"title": "Toluca", "lat": "19.2925", "long": "-99.6569"}, {"title": "Fresnillo", "lat": "23.1750", "long": "-102.8675"}, {"title": "Cordoba", "lat": "18.8942", "long": "-96.9347"}, {"title": "Jiutepec", "lat": "18.8833", "long": "-99.1667"}, {"title": "Zamora", "lat": "19.9833", "long": "-102.2833"}, {"title": "Comalcalco", "lat": "18.2801", "long": "-93.2018"}, {"title": "Poza Rica de Hidalgo", "lat": "20.5333", "long": "-97.4500"}, {"title": "Ciudad Madero", "lat": "22.2500", "long": "-97.8333"}, {"title": "Chilpancingo", "lat": "17.5500", "long": "-99.5000"}, {"title": "Ciudad del Carmen", "lat": "18.6333", "long": "-91.8333"}, {"title": "Cuautla", "lat": "18.8167", "long": "-98.9500"}, {"title": "Guanajuato", "lat": "21.0178", "long": "-101.2567"}, {"title": "San Cristobal", "lat": "16.7370", "long": "-92.6376"}, {"title": "Manzanillo", "lat": "19.0522", "long": "-104.3158"}, {"title": "Cuauhtemoc", "lat": "28.4050", "long": "-106.8667"}, {"title": "Cuautitlan", "lat": "19.6833", "long": "-99.1833"}, {"title": "Lagos de Moreno", "lat": "21.3567", "long": "-101.9378"}, {"title": "San Luis Rio Colorado", "lat": "32.4767", "long": "-114.7625"}, {"title": "Teziutlan", "lat": "19.8178", "long": "-97.3667"}, {"title": "Chicoloapan", "lat": "19.4167", "long": "-98.9000"}, {"title": "Santa Maria Texmelucan", "lat": "19.2833", "long": "-98.4333"}, {"title": "Ciudad Valles", "lat": "21.9833", "long": "-99.0167"}, {"title": "Comitan", "lat": "16.2511", "long": "-92.1342"}, {"title": "Chetumal", "lat": "18.5036", "long": "-88.3053"}, {"title": "San Andres Tuxtla", "lat": "18.4487", "long": "-95.2126"}, {"title": "Piedras Negras", "lat": "28.7000", "long": "-100.5231"}, {"title": "Ciudad Acuna", "lat": "29.3242", "long": "-100.9317"}, {"title": "San Martin Texmelucan de Labastida", "lat": "19.2833", "long": "-98.4333"}, {"title": "Tuxtepec", "lat": "18.1000", "long": "-96.1167"}, {"title": "Tulancingo", "lat": "20.0833", "long": "-98.3667"}, {"title": "Papantla de Olarte", "lat": "20.4478", "long": "-97.3200"}, {"title": "Macuspana", "lat": "17.7667", "long": "-92.6000"}, {"title": "Guaymas", "lat": "28.1667", "long": "-110.6667"}, {"title": "Colima", "lat": "19.2433", "long": "-103.7247"}, {"title": "Kanasin", "lat": "20.9344", "long": "-89.5578"}, {"title": "Ixtlahuaca", "lat": "19.5689", "long": "-99.7669"}, {"title": "Delicias", "lat": "28.1931", "long": "-105.4717"}, {"title": "Villa de Alvarez", "lat": "19.2500", "long": "-103.7333"}, {"title": "Valle de Santiago", "lat": "20.3928", "long": "-101.1969"}, {"title": "Penjamo", "lat": "20.4311", "long": "-101.7222"}, {"title": "Garcia", "lat": "25.8167", "long": "-100.5833"}, {"title": "Cuautitlan Izcalli", "lat": "19.6500", "long": "-99.2500"}, {"title": "Tepatitlan de Morelos", "lat": "20.8170", "long": "-102.7330"}, {"title": "Las Margaritas", "lat": "16.3667", "long": "-91.7333"}, {"title": "Iguala de la Independencia", "lat": "18.3450", "long": "-99.5383"}, {"title": "San Jose del Cabo", "lat": "23.0614", "long": "-109.7081"}, {"title": "Tultepec", "lat": "19.6850", "long": "-99.1281"}, {"title": "Boca del Rio", "lat": "19.1056", "long": "-96.1078"}, {"title": "Cunduacan", "lat": "18.0667", "long": "-93.1667"}, {"title": "Zinacantepec", "lat": "19.2833", "long": "-99.7333"}, {"title": "Apatzingan de la Constitucion", "lat": "19.0886", "long": "-102.3508"}, {"title": "Palenque", "lat": "17.4333", "long": "-91.8000"}, {"title": "Cholula de Rivadabia", "lat": "19.0633", "long": "-98.3064"}, {"title": "Huejutla de Reyes", "lat": "21.1333", "long": "-98.4167"}, {"title": "Miramar", "lat": "22.3375", "long": "-97.8694"}, {"title": "Matamoros", "lat": "25.5330", "long": "-103.2500"}, {"title": "San Pedro Garza Garcia", "lat": "25.6667", "long": "-100.3000"}, {"title": "Zacatecas", "lat": "22.7736", "long": "-102.5736"}, {"title": "Ciudad Hidalgo", "lat": "19.6923", "long": "-100.5574"}, {"title": "Ciudad Guzman", "lat": "19.7000", "long": "-103.4667"}, {"title": "Chilapa de Alvarez", "lat": "17.5944", "long": "-99.1778"}, {"title": "Navojoa", "lat": "27.0813", "long": "-109.4461"}, {"title": "Tizayuca", "lat": "19.8333", "long": "-98.9833"}, {"title": "Martinez de la Torre", "lat": "20.0667", "long": "-97.0500"}, {"title": "Temixco", "lat": "18.8500", "long": "-99.2333"}, {"title": "Heroica Guaymas", "lat": "27.9183", "long": "-110.8989"}, {"title": "San Antonio Enchisi", "lat": "19.7072", "long": "-99.7867"}, {"title": "Tecoman", "lat": "18.9089", "long": "-103.8747"}, {"title": "Las Delicias", "lat": "28.2000", "long": "-105.5000"}, {"title": "La Piedad", "lat": "20.3333", "long": "-102.0167"}, {"title": "Parral", "lat": "26.9333", "long": "-105.6667"}, {"title": "Tuxpam de Rodriguez Cano", "lat": "20.9500", "long": "-97.4000"}, {"title": "Temoaya", "lat": "19.4686", "long": "-99.5933"}, {"title": "Ciudad Rio Bravo", "lat": "25.9861", "long": "-98.0889"}, {"title": "Playas de Rosarito", "lat": "32.3636", "long": "-117.0544"}, {"title": "Lerma", "lat": "19.2847", "long": "-99.5119"}, {"title": "Texcoco", "lat": "19.5200", "long": "-98.8800"}, {"title": "Tula de Allende", "lat": "20.0500", "long": "-99.3500"}, {"title": "Tantoyuca", "lat": "21.3500", "long": "-98.2333"}, {"title": "Coatepec", "lat": "19.4522", "long": "-96.9614"}, {"title": "San Felipe del Progreso", "lat": "19.7125", "long": "-99.9511"}, {"title": "San Luis de la Paz", "lat": "21.3000", "long": "-100.5167"}, {"title": "Rincon de Romos", "lat": "22.2333", "long": "-102.3167"}, {"title": "Ocotlan", "lat": "20.3514", "long": "-102.7681"}, {"title": "Tenancingo", "lat": "18.9608", "long": "-99.5906"}, {"title": "Ciudad Lazaro Cardenas", "lat": "17.9561", "long": "-102.1922"}, {"title": "Cadereyta Jimenez", "lat": "25.6000", "long": "-100.0000"}, {"title": "Acayucan", "lat": "17.9422", "long": "-94.9103"}, {"title": "Xicotepec de Juarez", "lat": "20.3000", "long": "-97.9667"}, {"title": "Tala", "lat": "20.6525", "long": "-103.7028"}, {"title": "Apizaco", "lat": "19.4167", "long": "-98.1333"}, {"title": "Salina Cruz", "lat": "16.1833", "long": "-95.2000"}, {"title": "Tacambaro de Codallos", "lat": "19.2356", "long": "-101.4569"}, {"title": "Ciudad Lerdo", "lat": "25.5500", "long": "-103.5167"}, {"title": "Cozumel", "lat": "20.5104", "long": "-86.9493"}, {"title": "Tecate", "lat": "32.5728", "long": "-116.6267"}, {"title": "Silao", "lat": "20.9478", "long": "-101.4281"}, {"title": "Juchitan de Zaragoza", "lat": "16.4333", "long": "-95.0194"}, {"title": "Los Reyes de Salgado", "lat": "19.5833", "long": "-102.4667"}, {"title": "Tejupilco", "lat": "18.9058", "long": "-100.1528"}, {"title": "Frontera", "lat": "26.9260", "long": "-101.4490"}, {"title": "Perote", "lat": "19.5620", "long": "-97.2420"}, {"title": "San Miguel de Allende", "lat": "20.9142", "long": "-100.7436"}, {"title": "Tamazunchale", "lat": "21.2667", "long": "-98.7833"}, {"title": "Ixtaczoquitlan", "lat": "18.8500", "long": "-97.0667"}, {"title": "Rioverde", "lat": "21.9300", "long": "-99.9800"}, {"title": "Matehuala", "lat": "23.6528", "long": "-100.6444"}, {"title": "Cabo San Lucas", "lat": "22.8897", "long": "-109.9156"}, {"title": "Misantla", "lat": "19.9333", "long": "-96.8500"}, {"title": "Ramos Arizpe", "lat": "25.5500", "long": "-100.9667"}, {"title": "Valle Hermoso", "lat": "25.6736", "long": "-97.8144"}, {"title": "Huauchinango", "lat": "20.1767", "long": "-98.0528"}, {"title": "Huatusco", "lat": "19.1489", "long": "-96.9661"}, {"title": "Heroica Caborca", "lat": "30.7167", "long": "-112.1500"}, {"title": "Cortazar", "lat": "20.4830", "long": "-100.9330"}, {"title": "Sabinas", "lat": "27.8489", "long": "-101.1200"}, {"title": "Valle de Bravo", "lat": "19.1925", "long": "-100.1306"}, {"title": "Chiapa de Corzo", "lat": "16.7080", "long": "-93.0160"}, {"title": "Altamira", "lat": "22.3375", "long": "-97.8694"}, {"title": "Guamuchil", "lat": "25.4639", "long": "-108.0794"}, {"title": "Acambaro", "lat": "20.0361", "long": "-100.7314"}, {"title": "Ameca", "lat": "20.5486", "long": "-104.0431"}, {"title": "Cosamaloapan", "lat": "18.3667", "long": "-95.8000"}, {"title": "Linares", "lat": "24.8597", "long": "-99.5647"}, {"title": "Berriozabal", "lat": "16.8003", "long": "-93.2733"}, {"title": "Temascalcingo", "lat": "19.9147", "long": "-100.0036"}, {"title": "Tezonapa", "lat": "18.6058", "long": "-96.6875"}, {"title": "Pinotepa", "lat": "16.3412", "long": "-98.0537"}, {"title": "Ocosingo", "lat": "16.9072", "long": "-92.0961"}, {"title": "Zumpango", "lat": "19.7969", "long": "-99.0992"}, {"title": "Huamantla", "lat": "19.3133", "long": "-97.9228"}, {"title": "Nuevo Casas Grandes", "lat": "30.4167", "long": "-107.9167"}, {"title": "Acatzingo", "lat": "18.9817", "long": "-97.7822"}, {"title": "Catemaco", "lat": "18.4167", "long": "-95.1167"}, {"title": "Pijijiapan", "lat": "15.6917", "long": "-93.2093"}, {"title": "San Pedro", "lat": "25.7578", "long": "-102.9831"}, {"title": "Francisco I. Madero", "lat": "25.7753", "long": "-103.2731"}, {"title": "Cintalapa de Figueroa", "lat": "16.6978", "long": "-93.7203"}, {"title": "Buena Vista Tomatlan", "lat": "19.2102", "long": "-102.5869"}, {"title": "Valladolid", "lat": "20.6894", "long": "-88.2017"}, {"title": "Jimenez", "lat": "27.1300", "long": "-104.9067"}, {"title": "Loreto", "lat": "22.2667", "long": "-101.9833"}, {"title": "Tizimin", "lat": "21.1425", "long": "-88.1647"}, {"title": "Tlapa de Comonfort", "lat": "17.5461", "long": "-98.5764"}, {"title": "Cuetzalan", "lat": "20.0333", "long": "-97.5167"}, {"title": "Colonia del Sol", "lat": "22.9125", "long": "-109.9208"}, {"title": "Tlalmanalco", "lat": "19.2044", "long": "-98.8025"}, {"title": "Meoqui", "lat": "28.2722", "long": "-105.4819"}, {"title": "Isla", "lat": "18.0292", "long": "-95.5264"}, {"title": "Tulum", "lat": "20.2119", "long": "-87.4658"}, {"title": "Villa de Zaachila", "lat": "16.9508", "long": "-96.7492"}, {"title": "Tepalcatepec", "lat": "19.1833", "long": "-102.8500"}, {"title": "Santa Maria Atzompa", "lat": "17.0794", "long": "-96.7869"}, {"title": "Jaltipan de Morelos", "lat": "17.9703", "long": "-94.7144"}, {"title": "Actopan", "lat": "19.5036", "long": "-96.6192"}, {"title": "Heroica Ciudad de Tlaxiaco", "lat": "17.2077", "long": "-97.6798"}, {"title": "Coyotepec", "lat": "19.7756", "long": "-99.2056"}, {"title": "Teoloyucan", "lat": "19.7442", "long": "-99.1811"}, {"title": "Salvatierra", "lat": "20.2156", "long": "-100.8961"}, {"title": "Paracho de Verduzco", "lat": "19.6500", "long": "-102.0667"}, {"title": "Villaflores", "lat": "16.2355", "long": "-93.2677"}, {"title": "Empalme", "lat": "27.9617", "long": "-110.8125"}, {"title": "Nueva Rosita", "lat": "27.9390", "long": "-101.2180"}, {"title": "Playa Vicente", "lat": "17.8333", "long": "-95.8167"}, {"title": "Uman", "lat": "20.8833", "long": "-89.7500"}, {"title": "Juan Rodriguez Clara", "lat": "18.0000", "long": "-95.4000"}, {"title": "Ciudad Melchor Muzquiz", "lat": "27.8775", "long": "-101.5164"}, {"title": "Tonala", "lat": "16.0914", "long": "-93.7518"}, {"title": "Temascal", "lat": "18.2394", "long": "-96.4031"}, {"title": "Xico", "lat": "19.4170", "long": "-97.0000"}, {"title": "Zacatelco", "lat": "19.2167", "long": "-98.2333"}, {"title": "Sayula de Aleman", "lat": "17.8833", "long": "-94.9500"}, {"title": "Calpulalpan", "lat": "19.5869", "long": "-98.5683"}, {"title": "Zacatlan", "lat": "19.9319", "long": "-97.9600"}, {"title": "Cananea", "lat": "30.9819", "long": "-110.3006"}, {"title": "Mariano Escobedo", "lat": "18.9167", "long": "-97.1333"}, {"title": "Nueva Italia de Ruiz", "lat": "19.0194", "long": "-102.1089"}, {"title": "Miahuatlan de Porfirio Diaz", "lat": "16.3327", "long": "-96.5956"}, {"title": "Panuco", "lat": "22.0500", "long": "-98.1833"}, {"title": "Zinacantan", "lat": "16.7601", "long": "-92.7236"}, {"title": "Abasolo", "lat": "20.4511", "long": "-101.5289"}, {"title": "Tomatlan", "lat": "19.9333", "long": "-105.2333"}, {"title": "Escuinapa", "lat": "22.9822", "long": "-105.7031"}, {"title": "La Huacana", "lat": "18.9625", "long": "-101.8069"}, {"title": "Reforma", "lat": "17.8658", "long": "-93.1472"}, {"title": "Tenosique", "lat": "17.4756", "long": "-91.4225"}, {"title": "Villagran", "lat": "20.5170", "long": "-100.9830"}, {"title": "Soteapan", "lat": "18.2333", "long": "-94.8667"}, {"title": "Nanchital de Lazaro Cardenas del Rio", "lat": "18.0667", "long": "-94.4167"}, {"title": "Putla Villa de Guerrero", "lat": "17.0321", "long": "-97.9293"}, {"title": "Motozintla", "lat": "15.3632", "long": "-92.2477"}, {"title": "Ometepec", "lat": "16.6833", "long": "-98.4167"}, {"title": "Ticul", "lat": "20.3953", "long": "-89.5339"}, {"title": "Parras de la Fuente", "lat": "25.4403", "long": "-102.1792"}, {"title": "Paso del Macho", "lat": "18.9667", "long": "-96.7167"}, {"title": "Paso de Ovejas", "lat": "19.2850", "long": "-96.4400"}, {"title": "Zapotiltic", "lat": "19.6270", "long": "-103.4170"}, {"title": "Ixtapan de la Sal", "lat": "18.8333", "long": "-99.6833"}, {"title": "Tancitaro", "lat": "19.3384", "long": "-102.3626"}, {"title": "San Juan Evangelista", "lat": "17.8833", "long": "-95.1333"}, {"title": "Amecameca de Juarez", "lat": "19.1238", "long": "-98.7665"}, {"title": "Rodolfo Sanchez Taboada", "lat": "31.7958", "long": "-116.5911"}, {"title": "Champoton", "lat": "19.3500", "long": "-90.7167"}, {"title": "Villanueva", "lat": "22.3536", "long": "-102.8831"}, {"title": "Pabellon de Arteaga", "lat": "22.1500", "long": "-102.2667"}, {"title": "San Salvador El Seco", "lat": "19.1333", "long": "-97.6500"}, {"title": "Magdalena de Kino", "lat": "30.6167", "long": "-111.0500"}, {"title": "Ciudad Sabinas Hidalgo", "lat": "26.5000", "long": "-100.1833"}, {"title": "Escarcega", "lat": "18.6067", "long": "-90.7344"}, {"title": "Metepec", "lat": "19.2511", "long": "-99.6047"}, {"title": "Huatabampo", "lat": "26.8275", "long": "-109.6422"}, {"title": "Zumpango del Rio", "lat": "17.6500", "long": "-99.5000"}, {"title": "Ciudad Sahagun", "lat": "19.7714", "long": "-98.5803"}, {"title": "Soledad de Doblado", "lat": "19.0447", "long": "-96.4233"}, {"title": "Alamo", "lat": "20.9167", "long": "-97.6750"}, {"title": "Cuitzeo del Porvenir", "lat": "19.9686", "long": "-101.1394"}, {"title": "El Salto", "lat": "23.7823", "long": "-105.3585"}, {"title": "Actopan", "lat": "20.2681", "long": "-98.9442"}, {"title": "Teapa", "lat": "17.5483", "long": "-92.9530"}, {"title": "Navolato", "lat": "24.7656", "long": "-107.7019"}, {"title": "Atlatlahucan", "lat": "18.9350", "long": "-98.9000"}, {"title": "Contla", "lat": "19.3333", "long": "-98.1667"}, {"title": "San Fernando", "lat": "24.8504", "long": "-98.1600"}, {"title": "Castanos", "lat": "26.7833", "long": "-101.4167"}, {"title": "Tuxpan", "lat": "19.5661", "long": "-100.4625"}, {"title": "Ixhuatlancillo", "lat": "18.9000", "long": "-97.1500"}, {"title": "Jamay", "lat": "20.2944", "long": "-102.7097"}, {"title": "Tuxpan", "lat": "21.8667", "long": "-105.4500"}, {"title": "Puerto Escondido", "lat": "15.8619", "long": "-97.0672"}, {"title": "Tecax", "lat": "20.2019", "long": "-89.2881"}, {"title": "Miacatlan", "lat": "18.7722", "long": "-99.3547"}, {"title": "Los Reyes de Juarez", "lat": "18.9267", "long": "-97.7983"}, {"title": "Nogales", "lat": "18.8167", "long": "-97.1667"}, {"title": "Miahuatlan", "lat": "18.5667", "long": "-97.4333"}, {"title": "Paracuaro", "lat": "19.1464", "long": "-102.2194"}, {"title": "Rafael Delgado", "lat": "18.8167", "long": "-97.0667"}, {"title": "Hunucma", "lat": "21.0153", "long": "-89.8744"}, {"title": "Arriaga", "lat": "16.2361", "long": "-93.8995"}, {"title": "Altepexi", "lat": "18.3676", "long": "-97.3004"}, {"title": "Comalapa", "lat": "15.6602", "long": "-92.1411"}, {"title": "Tixtla de Guerrero", "lat": "17.5667", "long": "-99.4000"}, {"title": "Ocatlan", "lat": "19.3167", "long": "-98.2283"}, {"title": "Cheran", "lat": "19.6833", "long": "-101.9500"}, {"title": "Sombrerete", "lat": "23.6333", "long": "-103.6397"}, {"title": "Xoxocotla", "lat": "18.6850", "long": "-99.2439"}, {"title": "Chapala", "lat": "20.2961", "long": "-103.1911"}, {"title": "Ciudad Altamirano", "lat": "18.3583", "long": "-100.6667"}, {"title": "Cerro Azul", "lat": "21.2000", "long": "-97.7331"}, {"title": "San Juan Zitlaltepec", "lat": "19.7167", "long": "-99.0500"}, {"title": "San Buenaventura", "lat": "27.0625", "long": "-101.5467"}, {"title": "Tamiahua", "lat": "21.2788", "long": "-97.4462"}, {"title": "Carlos A. Carrillo", "lat": "18.3667", "long": "-95.7500"}, {"title": "Frontera", "lat": "18.5336", "long": "-92.6469"}, {"title": "Texistepec", "lat": "17.9000", "long": "-94.8167"}, {"title": "Cazones de Herrera", "lat": "20.7000", "long": "-97.3000"}, {"title": "Oxkutzkab", "lat": "20.3028", "long": "-89.4183"}, {"title": "Malinalco", "lat": "18.9483", "long": "-99.4947"}, {"title": "Motul", "lat": "21.1667", "long": "-89.4667"}, {"title": "Atoyac de Alvarez", "lat": "17.2000", "long": "-100.4333"}, {"title": "Santiago Ixcuintla", "lat": "21.8110", "long": "-105.2079"}, {"title": "Chocaman", "lat": "18.9978", "long": "-97.0430"}, {"title": "Charo", "lat": "19.7500", "long": "-101.0500"}, {"title": "Chiconcuac", "lat": "19.5500", "long": "-98.9000"}, {"title": "Tlacolula de Matamoros", "lat": "16.9542", "long": "-96.4792"}, {"title": "Nuevo San Juan Parangaricutiro", "lat": "19.4000", "long": "-102.1333"}, {"title": "Ojinaga", "lat": "29.5644", "long": "-104.4164"}, {"title": "Emiliano Zapata", "lat": "17.7446", "long": "-91.7651"}, {"title": "Cacahoatan", "lat": "14.9898", "long": "-92.1681"}, {"title": "Degollado", "lat": "20.4667", "long": "-102.1500"}, {"title": "Valle Nacional", "lat": "17.7667", "long": "-96.3000"}, {"title": "Cotija de la Paz", "lat": "19.8100", "long": "-102.7047"}, {"title": "Fortin de las Flores", "lat": "18.9000", "long": "-97.0000"}, {"title": "Tequixquiac", "lat": "19.9097", "long": "-99.1417"}, {"title": "Allende", "lat": "28.3333", "long": "-100.8333"}, {"title": "Suchiapa", "lat": "16.6220", "long": "-93.1048"}, {"title": "Mecayapan", "lat": "18.2167", "long": "-94.8333"}, {"title": "Mapastepec", "lat": "15.4411", "long": "-92.8916"}, {"title": "Peto", "lat": "20.1256", "long": "-88.9214"}, {"title": "Ciudad Miguel Aleman", "lat": "26.4003", "long": "-99.0253"}, {"title": "Teopisca", "lat": "16.5425", "long": "-92.4719"}, {"title": "Hidalgotitlan", "lat": "17.7833", "long": "-94.6333"}, {"title": "Zimatlan de Alvarez", "lat": "16.8667", "long": "-96.7833"}, {"title": "Tepatlaxco", "lat": "19.0667", "long": "-97.9667"}, {"title": "Jose Cardel", "lat": "19.3667", "long": "-96.3667"}, {"title": "Ciudad Hidalgo", "lat": "14.6792", "long": "-92.1497"}, {"title": "Aldama", "lat": "28.8386", "long": "-105.9111"}, {"title": "Palau", "lat": "27.9167", "long": "-101.4167"}, {"title": "Santa Catarina Juquila", "lat": "16.2379", "long": "-97.2914"}, {"title": "Tatahuicapan", "lat": "18.2500", "long": "-94.7667"}, {"title": "Ayutla de los Libres", "lat": "16.9000", "long": "-99.2167"}, {"title": "Vista Hermosa de Negrete", "lat": "20.2717", "long": "-102.4749"}, {"title": "Tapalpa", "lat": "19.9445", "long": "-103.7585"}, {"title": "Acala", "lat": "16.5533", "long": "-92.8069"}, {"title": "Coalcoman de Vazquez Pallares", "lat": "18.7775", "long": "-103.1600"}, {"title": "Acatlan de Osorio", "lat": "18.2086", "long": "-98.0575"}, {"title": "Salinas de Hidalgo", "lat": "22.6280", "long": "-101.7156"}, {"title": "Chemax", "lat": "20.6550", "long": "-87.9372"}, {"title": "Senguio", "lat": "19.7539", "long": "-100.3377"}, {"title": "Tecpan de Galeana", "lat": "17.2500", "long": "-100.6833"}, {"title": "Pajapan", "lat": "18.2667", "long": "-94.6833"}, {"title": "El Rosario", "lat": "22.9922", "long": "-105.8572"}, {"title": "El Dorado", "lat": "24.3228", "long": "-107.3630"}, {"title": "Tecuala", "lat": "22.4004", "long": "-105.4600"}, {"title": "Ciudad de Huitzuco", "lat": "18.3000", "long": "-99.3500"}, {"title": "Tepoztlan", "lat": "18.9853", "long": "-99.0997"}, {"title": "Tlaxcala", "lat": "19.3151", "long": "-98.2362"}, {"title": "Santiago Tulantepec", "lat": "20.0397", "long": "-98.3575"}, {"title": "Ciudad Guadalupe Victoria", "lat": "24.4497", "long": "-104.1225"}, {"title": "Cardenas", "lat": "22.0103", "long": "-99.6522"}, {"title": "Izamal", "lat": "20.9314", "long": "-89.0178"}, {"title": "La Crucecita", "lat": "15.7753", "long": "-96.1425"}, {"title": "La Cruz", "lat": "23.9214", "long": "-106.8919"}, {"title": "Grajales", "lat": "19.2500", "long": "-97.7833"}, {"title": "Tlaltetela", "lat": "19.3167", "long": "-96.9000"}, {"title": "Loreto", "lat": "26.0128", "long": "-111.3433"}, {"title": "Oteapan", "lat": "18.0000", "long": "-94.6667"}, {"title": "Pureparo de Echaiz", "lat": "19.9092", "long": "-102.0036"}, {"title": "Huixcolotla", "lat": "18.9219", "long": "-97.7708"}, {"title": "Vicente Guerrero", "lat": "23.7500", "long": "-103.9833"}, {"title": "Cerritos", "lat": "22.4275", "long": "-100.2783"}, {"title": "Juchique de Ferrer", "lat": "19.8333", "long": "-96.7000"}, {"title": "Santa Rosalia", "lat": "27.3389", "long": "-112.2669"}, {"title": "San Fernando", "lat": "16.8717", "long": "-93.2063"}, {"title": "Erongaricuaro", "lat": "19.5833", "long": "-101.7167"}, {"title": "Madera", "lat": "29.1900", "long": "-108.1414"}, {"title": "San Pablo Atlazalpan", "lat": "19.2172", "long": "-98.9090"}, {"title": "Huitzilan", "lat": "19.9667", "long": "-97.6833"}, {"title": "Villa Union", "lat": "23.1883", "long": "-106.2158"}, {"title": "Valparaiso", "lat": "22.7667", "long": "-103.5667"}, {"title": "Juan Aldama", "lat": "24.2910", "long": "-103.3940"}, {"title": "Ezequiel Montes", "lat": "20.6667", "long": "-99.8833"}, {"title": "Guachochi", "lat": "26.8194", "long": "-107.0700"}, {"title": "Miahuatlan", "lat": "18.2833", "long": "-97.2833"}, {"title": "Guerrero Negro", "lat": "27.9589", "long": "-114.0561"}, {"title": "San Nicolas de los Ranchos", "lat": "19.0667", "long": "-98.4833"}, {"title": "Calkini", "lat": "20.3667", "long": "-90.0500"}, {"title": "Vicente Guerrero", "lat": "30.7264", "long": "-115.9903"}, {"title": "Tempoal de Sanchez", "lat": "21.5167", "long": "-98.3833"}, {"title": "Nacozari de Garcia", "lat": "30.3833", "long": "-109.6833"}, {"title": "El Parral", "lat": "16.3662", "long": "-93.0067"}, {"title": "Mexicaltzingo", "lat": "19.2092", "long": "-99.5858"}, {"title": "Pueblo Nuevo", "lat": "17.1576", "long": "-92.8973"}, {"title": "Santa Cruz Amilpas", "lat": "17.0667", "long": "-96.6833"}, {"title": "San Miguel Xoxtla", "lat": "19.1833", "long": "-98.3000"}, {"title": "Anenecuilco", "lat": "18.7781", "long": "-98.9850"}, {"title": "Aldama", "lat": "22.9194", "long": "-98.0736"}, {"title": "Altamirano", "lat": "16.7361", "long": "-92.0389"}, {"title": "Bacalar", "lat": "18.6769", "long": "-88.3953"}, {"title": "Ascension", "lat": "31.0928", "long": "-107.9964"}, {"title": "Angel R. Cabada", "lat": "18.5969", "long": "-95.4453"}, {"title": "Villa Corzo", "lat": "16.1848", "long": "-93.2677"}, {"title": "Tenango del Aire", "lat": "19.1575", "long": "-98.8581"}, {"title": "Isla Mujeres", "lat": "21.2084", "long": "-86.7115"}, {"title": "Villa Juarez", "lat": "27.1278", "long": "-109.8426"}, {"title": "Jaltenango", "lat": "15.8725", "long": "-92.7250"}, {"title": "Nuevo Ideal", "lat": "24.8875", "long": "-105.0728"}, {"title": "Saucillo", "lat": "28.0333", "long": "-105.2833"}, {"title": "Santa Maria Jalapa del Marques", "lat": "16.4401", "long": "-95.4434"}, {"title": "La Magdalena Chichicaspa", "lat": "19.4181", "long": "-99.3228"}, {"title": "Rayon", "lat": "19.1481", "long": "-99.5800"}, {"title": "Cuencame de Ceniceros", "lat": "24.8667", "long": "-103.7000"}, {"title": "El Fuerte", "lat": "26.4214", "long": "-108.6200"}, {"title": "Cadereyta", "lat": "20.7000", "long": "-99.8167"}, {"title": "Santa Maria Huazolotitlan", "lat": "16.3041", "long": "-97.9135"}, {"title": "Parilla", "lat": "17.9119", "long": "-92.9175"}, {"title": "Santa Ana", "lat": "30.5406", "long": "-111.1205"}, {"title": "Las Veredas", "lat": "23.1500", "long": "-109.7000"}, {"title": "Escuintla", "lat": "15.3193", "long": "-92.6586"}, {"title": "Lerma", "lat": "19.8000", "long": "-90.6000"}, {"title": "San Pedro Jicayan", "lat": "16.4167", "long": "-97.9833"}, {"title": "Chiautla de Tapia", "lat": "18.3000", "long": "-98.6039"}, {"title": "Tierra Colorada", "lat": "17.1656", "long": "-99.5264"}, {"title": "Villa Union", "lat": "23.9667", "long": "-104.0333"}, {"title": "Sonoita", "lat": "31.8614", "long": "-112.8544"}, {"title": "Progreso", "lat": "32.5842", "long": "-115.5842"}, {"title": "Maxcanu", "lat": "20.5833", "long": "-89.9833"}, {"title": "Coacoatzintla", "lat": "19.6500", "long": "-96.9333"}, {"title": "Muna", "lat": "20.4800", "long": "-89.7200"}, {"title": "Candelaria", "lat": "18.1835", "long": "-91.0463"}, {"title": "Santiago Tangamandapio", "lat": "19.9500", "long": "-102.4333"}, {"title": "Canatlan", "lat": "24.5200", "long": "-104.7800"}, {"title": "San Pedro Ixcatlan", "lat": "18.1500", "long": "-96.5000"}, {"title": "Etchojoa", "lat": "26.8667", "long": "-109.6500"}, {"title": "Gonzalez", "lat": "22.8281", "long": "-98.4306"}, {"title": "Pantelho", "lat": "17.0067", "long": "-92.4696"}, {"title": "Akil", "lat": "20.2656", "long": "-89.3478"}, {"title": "San Luis de La Loma", "lat": "17.2714", "long": "-100.8911"}, {"title": "Chichihualco", "lat": "17.6550", "long": "-99.6740"}, {"title": "Ayapango", "lat": "19.1264", "long": "-98.8028"}, {"title": "Tetela del Volcan", "lat": "18.8931", "long": "-98.7297"}, {"title": "Platon Sanchez", "lat": "21.2833", "long": "-98.3667"}, {"title": "Tixkokob", "lat": "21.0022", "long": "-89.3936"}, {"title": "Acanceh", "lat": "20.8133", "long": "-89.4524"}, {"title": "Pajacuaran", "lat": "20.1178", "long": "-102.5667"}, {"title": "La Trinitaria", "lat": "16.1191", "long": "-92.0505"}, {"title": "San Ignacio Cohuirimpo", "lat": "27.0500", "long": "-109.4167"}, {"title": "Cuatro Cienegas de Carranza", "lat": "26.9861", "long": "-102.0664"}, {"title": "San Juanito", "lat": "27.9700", "long": "-107.6003"}, {"title": "Tlahualilo de Zaragoza", "lat": "26.1083", "long": "-103.4431"}, {"title": "Cuapiaxtla de Madero", "lat": "18.9167", "long": "-97.8167"}, {"title": "Ciudad Tula", "lat": "23.0000", "long": "-99.7200"}, {"title": "Tlalixtac de Cabrera", "lat": "17.0667", "long": "-96.6500"}, {"title": "Teotlaltzingo", "lat": "19.2326", "long": "-98.5149"}, {"title": "San Gregorio Atzompa", "lat": "19.0224", "long": "-98.3445"}, {"title": "Anahuac", "lat": "28.4800", "long": "-106.7442"}, {"title": "Amatlan de los Reyes", "lat": "18.8457", "long": "-96.9149"}, {"title": "Xicotencatl", "lat": "22.9958", "long": "-98.9447"}, {"title": "Tekit", "lat": "20.5322", "long": "-89.3314"}, {"title": "Choix", "lat": "26.7061", "long": "-108.3219"}, {"title": "Tzucacab", "lat": "20.0708", "long": "-89.0506"}, {"title": "Otumba", "lat": "19.6989", "long": "-98.7572"}, {"title": "Coahuitlan", "lat": "20.2667", "long": "-97.7167"}, {"title": "Higuera de Zaragoza", "lat": "25.9500", "long": "-109.2833"}, {"title": "La Junta", "lat": "28.4778", "long": "-107.3317"}, {"title": "Chilon", "lat": "17.1055", "long": "-92.2715"}, {"title": "Halacho", "lat": "20.4764", "long": "-90.0819"}, {"title": "San Juan Ixcaquixtla", "lat": "18.4500", "long": "-97.8167"}, {"title": "Tataltepec de Valdes", "lat": "16.3064", "long": "-97.5461"}, {"title": "Ahumada", "lat": "30.6186", "long": "-106.5122"}, {"title": "Lazaro Cardenas", "lat": "28.3897", "long": "-105.6236"}, {"title": "Ayotoxco de Guerrero", "lat": "20.1000", "long": "-97.4000"}, {"title": "Esperanza", "lat": "27.5800", "long": "-109.9298"}, {"title": "Ixmiquilpan", "lat": "20.4861", "long": "-99.2589"}, {"title": "Ocozocoautla de Espinosa", "lat": "16.8000", "long": "-93.5000"}, {"title": "Paraiso", "lat": "18.3961", "long": "-93.2128"}, {"title": "Santa Cruz Xoxocotlan", "lat": "17.0296", "long": "-96.7352"}, {"title": "Agua Prieta", "lat": "31.3258", "long": "-109.5489"}, {"title": "Ciudad de Atlixco", "lat": "18.9000", "long": "-98.4500"}, {"title": "San Francisco", "lat": "30.9000", "long": "-112.6000"}, {"title": "Maravatio de Ocampo", "lat": "19.8933", "long": "-100.4428"}, {"title": "Jilotepec", "lat": "19.9519", "long": "-99.5328"}, {"title": "Santa Rosa Jauregui", "lat": "20.7418", "long": "-100.4473"}, {"title": "Guasavito", "lat": "25.5655", "long": "-108.4718"}, {"title": "Ciudad Mante", "lat": "22.7333", "long": "-98.9500"}, {"title": "Felipe Carrillo Puerto", "lat": "19.5786", "long": "-88.0453"}, {"title": "Tila", "lat": "17.3667", "long": "-92.5000"}, {"title": "La Trinidad", "lat": "15.9833", "long": "-91.8667"}, {"title": "Patzcuaro", "lat": "19.5164", "long": "-101.6097"}, {"title": "Juventino Rosas", "lat": "20.6500", "long": "-101.0000"}, {"title": "Sahuayo de Morelos", "lat": "20.0575", "long": "-102.7239"}, {"title": "Villa Victoria", "lat": "19.4333", "long": "-100.0000"}, {"title": "Huebampo", "lat": "26.6667", "long": "-109.3500"}, {"title": "Tecamachalco", "lat": "18.8667", "long": "-97.7167"}, {"title": "San Francisco del Rincon", "lat": "21.0228", "long": "-101.8600"}, {"title": "San Juan de los Lagos", "lat": "21.2489", "long": "-102.3304"}, {"title": "Purisima de Bustos", "lat": "21.0333", "long": "-101.8667"}, {"title": "Zapotlanejo", "lat": "20.6228", "long": "-103.0689"}, {"title": "Ixtlahuacan de los Membrillos", "lat": "20.3500", "long": "-103.1833"}, {"title": "La Barca", "lat": "20.2833", "long": "-102.5667"}, {"title": "Tepotzotlan", "lat": "19.7161", "long": "-99.2236"}, {"title": "Santa Catarina Otzolotepec", "lat": "18.5667", "long": "-97.2500"}, {"title": "Zihuatanejo", "lat": "17.6444", "long": "-101.5511"}, {"title": "Venustiano Carranza", "lat": "16.3000", "long": "-92.6000"}, {"title": "Dolores Hidalgo Cuna de la Independencia Nacional", "lat": "21.1516", "long": "-100.9369"}, {"title": "Ocoyoacac", "lat": "19.2739", "long": "-99.4606"}, {"title": "Jocotitlan", "lat": "19.7072", "long": "-99.7867"}, {"title": "Santo Domingo Tehuantepec", "lat": "16.3184", "long": "-95.2478"}, {"title": "Apaseo el Alto", "lat": "20.4500", "long": "-100.6167"}, {"title": "Santiago Tianguistenco", "lat": "19.1797", "long": "-99.4706"}, {"title": "Salto de Agua", "lat": "17.4167", "long": "-92.1833"}, {"title": "Puerto Penasco", "lat": "31.3167", "long": "-113.5369"}, {"title": "Autlan de Navarro", "lat": "19.7667", "long": "-104.3667"}, {"title": "Atotonilco el Alto", "lat": "20.5333", "long": "-102.5000"}, {"title": "Uriangato", "lat": "20.1333", "long": "-101.1667"}, {"title": "Huehuetoca", "lat": "19.8342", "long": "-99.2033"}, {"title": "Balancan", "lat": "17.8000", "long": "-91.3500"}, {"title": "Melchor Ocampo", "lat": "19.7083", "long": "-99.1444"}, {"title": "Zempoala", "lat": "19.9167", "long": "-98.6667"}, {"title": "Ciudad Cuauhtemoc", "lat": "22.1833", "long": "-97.8333"}, {"title": "Jerez de Garcia Salinas", "lat": "22.6481", "long": "-102.9903"}, {"title": "Santiago Tuxtla", "lat": "18.4654", "long": "-95.3000"}, {"title": "Alvarado", "lat": "18.7811", "long": "-95.7572"}, {"title": "Acambay", "lat": "19.9539", "long": "-99.8431"}, {"title": "Amealco", "lat": "20.1881", "long": "-100.1439"}, {"title": "Oxchuc", "lat": "16.7833", "long": "-92.2833"}, {"title": "Huixtla", "lat": "15.1000", "long": "-92.5333"}, {"title": "Tlacotepec", "lat": "18.6882", "long": "-97.6489"}, {"title": "Ixhuatlan de Madero", "lat": "20.6833", "long": "-98.0167"}, {"title": "Encarnacion de Diaz", "lat": "21.5167", "long": "-102.2333"}, {"title": "Simojovel de Allende", "lat": "17.1333", "long": "-92.6167"}, {"title": "San Jose Villa de Allende", "lat": "19.3747", "long": "-100.1475"}, {"title": "Taxco de Alarcon", "lat": "18.5564", "long": "-99.6050"}, {"title": "Uman", "lat": "20.8500", "long": "-89.7667"}, {"title": "Santa Lucia del Camino", "lat": "17.0667", "long": "-96.6833"}, {"title": "Tepeapulco", "lat": "19.7856", "long": "-98.5517"}, {"title": "San Pedro Mixtepec", "lat": "16.0000", "long": "-97.1169"}, {"title": "Chenalho", "lat": "16.9333", "long": "-92.5667"}, {"title": "Santa Ana Chiautempan", "lat": "19.3167", "long": "-98.1833"}, {"title": "Calimaya", "lat": "19.1608", "long": "-99.6172"}, {"title": "Ciudad Serdan", "lat": "18.9833", "long": "-97.4500"}, {"title": "San Francisco de los Romo", "lat": "22.0833", "long": "-102.2667"}, {"title": "Jocotepec", "lat": "20.2861", "long": "-103.4300"}, {"title": "La Independencia", "lat": "16.2000", "long": "-91.7833"}, {"title": "Acaxochitlan", "lat": "20.1667", "long": "-98.2000"}, {"title": "Acatlan de Perez Figueroa", "lat": "18.5333", "long": "-96.6167"}, {"title": "Santa Maria Huatulco", "lat": "15.8500", "long": "-96.3333"}, {"title": "Cuautepec de Hinojosa", "lat": "20.1500", "long": "-98.4333"}, {"title": "Guacharachi", "lat": "27.1500", "long": "-107.3167"}, {"title": "Ciudad de Huajuapam de Leon", "lat": "17.8097", "long": "-97.7764"}, {"title": "Montemorelos", "lat": "25.1872", "long": "-99.8267"}, {"title": "Tres Valles", "lat": "18.2367", "long": "-96.1369"}, {"title": "Petatlan", "lat": "17.5383", "long": "-101.2739"}, {"title": "Zongolica", "lat": "18.6642", "long": "-97.0011"}, {"title": "Ciudad Constitucion", "lat": "25.0322", "long": "-111.6703"}, {"title": "Pedro Celestino Negrete", "lat": "24.7260", "long": "-102.9840"}, {"title": "Hueyapan de Ocampo", "lat": "18.1500", "long": "-95.1500"}, {"title": "Jesus Maria", "lat": "21.9667", "long": "-102.3500"}, {"title": "Atenco", "lat": "19.5167", "long": "-98.9167"}, {"title": "Coyuca de Catalan", "lat": "18.3256", "long": "-100.6992"}, {"title": "Tequila", "lat": "20.8794", "long": "-103.8356"}, {"title": "Jiquipilas", "lat": "16.5333", "long": "-93.6667"}, {"title": "Yajalon", "lat": "17.1833", "long": "-92.3167"}, {"title": "Camargo", "lat": "27.6670", "long": "-105.1670"}, {"title": "Zimapan", "lat": "20.7333", "long": "-99.3833"}, {"title": "Yecapixtla", "lat": "18.8833", "long": "-98.8650"}, {"title": "Matias Romero", "lat": "16.8798", "long": "-95.0391"}, {"title": "Villa del Carbon", "lat": "19.7272", "long": "-99.5417"}, {"title": "Tlalixcoyan", "lat": "18.8031", "long": "-96.0611"}, {"title": "Axochiapan", "lat": "18.5000", "long": "-98.7500"}, {"title": "Apan", "lat": "19.7000", "long": "-98.4333"}, {"title": "Jose Maria Morelos", "lat": "19.7500", "long": "-88.7000"}, {"title": "Galeana", "lat": "24.8333", "long": "-100.0667"}, {"title": "San Felipe Orizatlan", "lat": "21.1719", "long": "-98.6064"}, {"title": "San Juan Cancuc", "lat": "16.9333", "long": "-92.3833"}, {"title": "Mixquiahuala de Juarez", "lat": "20.2311", "long": "-99.2131"}, {"title": "Santiago", "lat": "25.4333", "long": "-100.1333"}, {"title": "Jalapa", "lat": "17.7000", "long": "-92.8000"}, {"title": "Progreso", "lat": "21.2800", "long": "-89.6700"}, {"title": "Bochil", "lat": "17.0167", "long": "-92.9500"}, {"title": "Coatepec Harinas", "lat": "18.9000", "long": "-99.7167"}, {"title": "Ciudad Manuel Doblado", "lat": "20.7303", "long": "-101.9533"}, {"title": "Sayula", "lat": "19.8836", "long": "-103.5972"}, {"title": "Jaral del Progreso", "lat": "20.3667", "long": "-101.0667"}, {"title": "Huehuetan", "lat": "15.0000", "long": "-92.4333"}, {"title": "Santiago Juxtlahuaca", "lat": "17.3333", "long": "-98.0167"}, {"title": "Zacatepec", "lat": "18.6833", "long": "-99.1833"}, {"title": "Tamuin", "lat": "22.0000", "long": "-98.7833"}, {"title": "Tangancicuaro de Arista", "lat": "19.8889", "long": "-102.2050"}, {"title": "Ocuilan de Arteaga", "lat": "19.0000", "long": "-99.4000"}, {"title": "Santa Ana Nextlalpan", "lat": "19.7167", "long": "-99.0667"}, {"title": "Tepeji del Rio de Ocampo", "lat": "19.9039", "long": "-99.3414"}, {"title": "Temascalapa", "lat": "19.8000", "long": "-98.9000"}, {"title": "San Felipe", "lat": "21.4833", "long": "-101.2167"}, {"title": "Capulhuac", "lat": "19.2000", "long": "-99.4667"}, {"title": "Pichucalco", "lat": "17.5167", "long": "-93.2000"}, {"title": "Tuzantan", "lat": "15.1333", "long": "-92.4000"}, {"title": "Temascaltepec de Gonzalez", "lat": "19.0433", "long": "-100.0414"}, {"title": "Turicato", "lat": "19.0500", "long": "-101.4167"}, {"title": "El Oro de Hidalgo", "lat": "19.8008", "long": "-100.1314"}, {"title": "Amatenango de la Frontera", "lat": "15.5333", "long": "-92.0833"}, {"title": "Tecozautla", "lat": "20.5333", "long": "-99.6333"}, {"title": "Cuauhtemoc", "lat": "19.3281", "long": "-103.6028"}, {"title": "Tepetlaoxtoc", "lat": "19.5731", "long": "-98.8203"}, {"title": "Jonuta", "lat": "18.0333", "long": "-92.1333"}, {"title": "Villa Donato Guerra", "lat": "19.3083", "long": "-100.1422"}, {"title": "Villa Comaltitlan", "lat": "15.1667", "long": "-92.6167"}, {"title": "Cihuatlan", "lat": "19.2500", "long": "-104.5667"}, {"title": "Sabanilla", "lat": "17.3167", "long": "-92.6167"}, {"title": "San Rafael", "lat": "20.1889", "long": "-96.8658"}, {"title": "Xalatlaco", "lat": "19.1811", "long": "-99.4164"}, {"title": "Tequisquiapan", "lat": "20.5206", "long": "-99.8958"}, {"title": "Ozumba", "lat": "19.0392", "long": "-98.7936"}, {"title": "Juchitepec", "lat": "19.0997", "long": "-98.8792"}, {"title": "Ixtapa", "lat": "16.8167", "long": "-92.9167"}, {"title": "Tetela de Ocampo", "lat": "19.8167", "long": "-97.8000"}, {"title": "Las Rosas", "lat": "16.3667", "long": "-92.3500"}, {"title": "Nava", "lat": "28.4214", "long": "-100.7675"}, {"title": "San Salvador", "lat": "20.2833", "long": "-99.0153"}, {"title": "Zacoalco de Torres", "lat": "20.2333", "long": "-103.5833"}, {"title": "San Felipe Jalapa de Diaz", "lat": "18.0716", "long": "-96.5352"}, {"title": "Xochistlahuaca", "lat": "16.7914", "long": "-98.2419"}, {"title": "Tehuipango", "lat": "18.5167", "long": "-97.0500"}, {"title": "Quiroga", "lat": "19.6638", "long": "-101.5240"}, {"title": "Huitiupan", "lat": "17.2333", "long": "-92.7000"}, {"title": "Nochistlan de Mejia", "lat": "21.3642", "long": "-102.8464"}, {"title": "Tlalpujahua de Rayon", "lat": "19.8052", "long": "-100.1741"}, {"title": "Villa Luvianos", "lat": "18.9200", "long": "-100.2983"}, {"title": "Salinas Victoria", "lat": "25.9667", "long": "-100.3000"}, {"title": "Atlautla", "lat": "19.0000", "long": "-98.7167"}, {"title": "Apaxco de Ocampo", "lat": "19.9800", "long": "-99.1700"}, {"title": "San Juan Guichicovi", "lat": "16.9667", "long": "-95.0833"}, {"title": "Cueramaro", "lat": "20.6258", "long": "-101.6739"}, {"title": "Huaquechula", "lat": "18.7667", "long": "-98.5500"}, {"title": "Atitalaquia", "lat": "20.0583", "long": "-99.2208"}, {"title": "Tepehuacan de Guerrero", "lat": "21.0131", "long": "-98.8442"}, {"title": "San Agustin Tlaxiaca", "lat": "20.1144", "long": "-98.8867"}, {"title": "Tlaxcoapan", "lat": "20.0953", "long": "-99.2200"}, {"title": "Amatepec", "lat": "18.6500", "long": "-100.1500"}, {"title": "Acapetahua", "lat": "15.2333", "long": "-92.7667"}, {"title": "Jaltenco", "lat": "19.7511", "long": "-99.0931"}, {"title": "Cuajinicuilapa", "lat": "16.4717", "long": "-98.4153"}, {"title": "Santiago Papasquiaro", "lat": "25.0439", "long": "-105.4192"}, {"title": "Zacualtipan", "lat": "20.6500", "long": "-98.6500"}, {"title": "Santa Maria Colotepec", "lat": "15.8833", "long": "-96.9167"}, {"title": "Huejotzingo", "lat": "19.1594", "long": "-98.4073"}, {"title": "Jalpan", "lat": "21.2167", "long": "-99.4725"}, {"title": "Acatlan", "lat": "20.4242", "long": "-103.6014"}, {"title": "Pinal de Amoles", "lat": "21.1342", "long": "-99.4586"}, {"title": "Santa Maria Tonameca", "lat": "15.7458", "long": "-96.5472"}, {"title": "Jitotol", "lat": "17.0833", "long": "-92.8833"}, {"title": "Sultepec", "lat": "18.8667", "long": "-99.9500"}, {"title": "Amatan", "lat": "17.3833", "long": "-92.8500"}, {"title": "La Huerta", "lat": "19.4833", "long": "-104.6500"}, {"title": "San Agustin Loxicha", "lat": "16.0167", "long": "-96.6167"}, {"title": "El Bosque", "lat": "17.0333", "long": "-92.7500"}, {"title": "San Miguel Ocotenco", "lat": "18.9894", "long": "-97.4470"}, {"title": "Tecolutla", "lat": "20.4797", "long": "-97.0100"}, {"title": "Tecali", "lat": "18.9000", "long": "-97.9833"}, {"title": "Soledad Atzompa", "lat": "18.7550", "long": "-97.1522"}, {"title": "San Juan Cotzocon", "lat": "17.1667", "long": "-95.7833"}, {"title": "Benemerito", "lat": "16.3333", "long": "-90.5833"}, {"title": "Ahualulco de Mercado", "lat": "20.6992", "long": "-103.9556"}, {"title": "Doctor Mora", "lat": "21.1425", "long": "-100.3192"}, {"title": "Cuilapan de Guerrero", "lat": "16.9972", "long": "-96.7817"}, {"title": "Ozuluama de Mascarenas", "lat": "21.6667", "long": "-97.8500"}, {"title": "Tototlan", "lat": "20.5333", "long": "-102.7833"}, {"title": "Huixtan", "lat": "16.6833", "long": "-92.4000"}, {"title": "Acatlan", "lat": "20.1444", "long": "-98.4383"}, {"title": "San Miguel de Papasquiaro", "lat": "24.8304", "long": "-105.3400"}, {"title": "Magdalena", "lat": "20.9092", "long": "-103.9803"}, {"title": "Yahualica de Gonzalez Gallo", "lat": "21.1781", "long": "-102.8860"}, {"title": "Puente Nacional", "lat": "19.3333", "long": "-96.4833"}, {"title": "Huautla", "lat": "21.0308", "long": "-98.2850"}, {"title": "Tepexi de Rodriguez", "lat": "18.5797", "long": "-97.9267"}, {"title": "Yahualica", "lat": "20.9531", "long": "-98.3800"}, {"title": "Chapa de Mota", "lat": "19.8144", "long": "-99.5269"}, {"title": "San Felipe", "lat": "31.0275", "long": "-114.8353"}, {"title": "Huejucar", "lat": "22.3167", "long": "-103.2333"}, {"title": "Chalchihuitan", "lat": "17.0333", "long": "-92.6167"}, {"title": "Axapusco", "lat": "19.7194", "long": "-98.7972"}, {"title": "Ocotlan de Morelos", "lat": "16.7914", "long": "-96.6750"}, {"title": "Pueblo Juarez", "lat": "17.7000", "long": "-93.2000"}, {"title": "San Martin de las Piramides", "lat": "19.7333", "long": "-98.8167"}, {"title": "Tlaltenango de Sanchez Roman", "lat": "21.7815", "long": "-103.3059"}, {"title": "La Resolana", "lat": "19.6031", "long": "-104.4362"}, {"title": "Acatic", "lat": "20.7803", "long": "-102.9100"}, {"title": "Santa Maria Chilchotla", "lat": "18.2333", "long": "-96.8167"}, {"title": "Coquimatlan", "lat": "19.2038", "long": "-103.8086"}, {"title": "Chachahuantla", "lat": "20.2756", "long": "-98.1503"}, {"title": "Chapulhuacan", "lat": "21.1547", "long": "-98.9039"}, {"title": "Colonia General Felipe Angeles", "lat": "23.9167", "long": "-104.6000"}, {"title": "Villa Hidalgo", "lat": "21.6762", "long": "-102.5880"}, {"title": "Huanimaro", "lat": "20.3675", "long": "-101.4969"}, {"title": "Tepetlixpa", "lat": "19.0006", "long": "-98.8178"}, {"title": "Bella Vista", "lat": "15.6167", "long": "-92.2333"}, {"title": "Cruz Grande", "lat": "16.7333", "long": "-99.1333"}, {"title": "Naranjos", "lat": "21.3472", "long": "-97.6833"}, {"title": "Castillo de Teayo", "lat": "20.7500", "long": "-97.6333"}, {"title": "Atlapexco", "lat": "21.0042", "long": "-98.5056"}, {"title": "El Arenal", "lat": "20.7754", "long": "-103.6935"}, {"title": "Comapa", "lat": "19.1667", "long": "-96.8666"}, {"title": "Calvillo", "lat": "21.8500", "long": "-102.7167"}, {"title": "Colotlan", "lat": "22.1000", "long": "-103.2833"}, {"title": "Puerto Morelos", "lat": "20.8536", "long": "-86.8753"}, {"title": "Jesus Maria", "lat": "20.6068", "long": "-102.2230"}, {"title": "Texcaltitlan", "lat": "18.9297", "long": "-99.9372"}, {"title": "Jamiltepec", "lat": "16.2783", "long": "-97.8200"}, {"title": "Huehuetla", "lat": "20.1075", "long": "-97.6233"}, {"title": "Cuquio", "lat": "20.9275", "long": "-103.0239"}, {"title": "Tlalnelhuayocan", "lat": "19.5667", "long": "-96.9667"}, {"title": "Santa Ana Jilotzingo", "lat": "19.5333", "long": "-99.4000"}, {"title": "Ixtlahuacan del Rio", "lat": "20.8667", "long": "-103.2500"}, {"title": "Ajacuba", "lat": "20.0833", "long": "-99.1167"}, {"title": "Filomeno Mata", "lat": "20.2000", "long": "-97.7000"}, {"title": "Moloacan", "lat": "17.9833", "long": "-94.3500"}, {"title": "Santa Cruz Zenzontepec", "lat": "16.5333", "long": "-97.5000"}, {"title": "Asuncion Nochixtlan", "lat": "17.4592", "long": "-97.2261"}, {"title": "San Blas Atempa", "lat": "16.3167", "long": "-95.2167"}, {"title": "San Jose Tenango", "lat": "18.1500", "long": "-96.7333"}, {"title": "Jalpa de Mendez", "lat": "18.1764", "long": "-93.0631"}, {"title": "Xochiatipan de Castillo", "lat": "20.8333", "long": "-98.2850"}, {"title": "Juanacatlan", "lat": "20.5000", "long": "-103.1667"}, {"title": "Cuautitlan", "lat": "19.4333", "long": "-104.3000"}, {"title": "Zapotlan del Rey", "lat": "20.4674", "long": "-102.9248"}, {"title": "Union de San Antonio", "lat": "21.1280", "long": "-102.0060"}, {"title": "San Bartolo Tutotepec", "lat": "20.4000", "long": "-98.2000"}, {"title": "Amacuzac", "lat": "18.6000", "long": "-99.3700"}, {"title": "Tlahuelilpan", "lat": "20.1297", "long": "-99.2286"}, {"title": "Benito Juarez", "lat": "20.8833", "long": "-98.2000"}, {"title": "Santos Reyes Nopala", "lat": "16.1000", "long": "-97.1500"}, {"title": "Totutla", "lat": "19.2167", "long": "-96.9667"}, {"title": "Tenango de Doria", "lat": "20.3356", "long": "-98.2267"}, {"title": "Compostela", "lat": "21.2389", "long": "-104.9000"}, {"title": "Tasquillo", "lat": "20.6167", "long": "-99.2500"}, {"title": "Ziracuaretiro", "lat": "19.4189", "long": "-101.9088"}, {"title": "Epitacio Huerta", "lat": "20.1348", "long": "-100.2934"}, {"title": "Cosautlan", "lat": "19.3333", "long": "-96.9833"}, {"title": "Pisaflores", "lat": "21.1933", "long": "-99.0050"}, {"title": "Tecolotlan", "lat": "20.2024", "long": "-104.0504"}, {"title": "Calnali", "lat": "20.9000", "long": "-98.5833"}, {"title": "Ignacio de la Llave", "lat": "18.6618", "long": "-95.9721"}, {"title": "Dzitbalche", "lat": "20.3167", "long": "-90.0500"}, {"title": "San Juan Lalana", "lat": "17.4667", "long": "-95.8833"}, {"title": "Penamiller", "lat": "21.0519", "long": "-99.8150"}, {"title": "Guadalupe Victoria", "lat": "19.2833", "long": "-97.3333"}, {"title": "Jilotepec", "lat": "19.6113", "long": "-96.9224"}, {"title": "San Jacinto Amilpas", "lat": "17.1006", "long": "-96.7625"}, {"title": "Alfajayucan", "lat": "20.4000", "long": "-99.3500"}, {"title": "Chinampa de Gorostiza", "lat": "21.3667", "long": "-97.7333"}, {"title": "Santa Maria Petapa", "lat": "16.8167", "long": "-95.1167"}, {"title": "Zapotlan de Juarez", "lat": "19.9667", "long": "-98.8500"}, {"title": "Santa Anita", "lat": "30.4500", "long": "-111.0500"}, {"title": "Chiconquiaco", "lat": "19.7500", "long": "-96.8167"}, {"title": "San Julian", "lat": "61.5240", "long": "105.3188"}, {"title": "Cardonal", "lat": "20.6167", "long": "-99.1167"}, {"title": "Ixhuatlan del Sureste", "lat": "18.0170", "long": "-94.3800"}, {"title": "Huasca de Ocampo", "lat": "20.2028", "long": "-98.5758"}, {"title": "Churumuco de Morelos", "lat": "18.6167", "long": "-101.6333"}, {"title": "Amatitan", "lat": "20.8333", "long": "-103.7167"}, {"title": "Chilcuautla", "lat": "20.3333", "long": "-99.2333"}, {"title": "San Pedro Tapanatepec", "lat": "16.3667", "long": "-94.2000"}, {"title": "Zozocolco de Hidalgo", "lat": "20.1333", "long": "-97.5833"}, {"title": "Zacualpan", "lat": "18.7197", "long": "-99.7800"}, {"title": "El Arenal", "lat": "20.2167", "long": "-98.9167"}, {"title": "Nopala de Villagran", "lat": "20.2528", "long": "-99.6433"}, {"title": "San Mateo del Mar", "lat": "16.2000", "long": "-94.9833"}, {"title": "Mineral del Monte", "lat": "20.1333", "long": "-98.6667"}, {"title": "Tepetzintla", "lat": "21.1452", "long": "-97.8558"}, {"title": "Maravilla Tenejapa", "lat": "16.2167", "long": "-91.2500"}, {"title": "Zontecomatlan de Lopez y Fuentes", "lat": "20.7667", "long": "-98.3333"}, {"title": "Tlayacapan", "lat": "18.9556", "long": "-98.9811"}, {"title": "Tianguistengo", "lat": "20.7278", "long": "-98.6289"}, {"title": "San Andres Timilpan", "lat": "19.8667", "long": "-99.7333"}, {"title": "Nacozari Viejo", "lat": "30.4833", "long": "-109.4667"}, {"title": "Cienega de Flores", "lat": "25.9500", "long": "-100.1833"}, {"title": "El Barrio de la Soledad", "lat": "16.8000", "long": "-95.1167"}, {"title": "Ocotepec", "lat": "17.2167", "long": "-93.1833"}, {"title": "Santiago Ixtayutla", "lat": "16.5667", "long": "-97.6500"}, {"title": "Almoloya de Alquisiras", "lat": "18.8500", "long": "-99.8500"}, {"title": "El Porvenir de Velasco Suarez", "lat": "15.4333", "long": "-92.2667"}, {"title": "Santiago Jocotepec", "lat": "17.5833", "long": "-95.8833"}, {"title": "Mitontic", "lat": "16.8667", "long": "-92.5667"}, {"title": "Santiago de Anaya", "lat": "20.3844", "long": "-98.9647"}, {"title": "San Pedro Pochutla", "lat": "15.7476", "long": "-96.4666"}, {"title": "Tapilula", "lat": "17.2500", "long": "-93.0000"}, {"title": "Polotitlan de la Ilustracion", "lat": "20.2231", "long": "-99.8147"}, {"title": "Chanal", "lat": "16.6000", "long": "-92.2167"}, {"title": "Eloxochitlan", "lat": "18.5088", "long": "-96.9227"}, {"title": "Ixcatepec", "lat": "21.2333", "long": "-98.0000"}, {"title": "Chalma", "lat": "21.2167", "long": "-98.4000"}, {"title": "Ilamatlan", "lat": "20.7833", "long": "-98.4500"}, {"title": "Yecuatla", "lat": "19.8521", "long": "-96.7792"}, {"title": "Union de Tula", "lat": "19.9570", "long": "-104.2680"}, {"title": "Espita", "lat": "21.0128", "long": "-88.3047"}, {"title": "Soyaniquilpan", "lat": "19.9892", "long": "-99.4361"}, {"title": "Cocotitlan", "lat": "19.2167", "long": "-98.8500"}, {"title": "Ajijic", "lat": "20.3000", "long": "-103.2833"}, {"title": "Mazatlan Villa de Flores", "lat": "18.0167", "long": "-96.9167"}, {"title": "Singuilucan", "lat": "19.9675", "long": "-98.5178"}, {"title": "Tezontepec", "lat": "19.8833", "long": "-98.8167"}, {"title": "Chapantongo", "lat": "20.2833", "long": "-99.4000"}, {"title": "Zaragoza", "lat": "28.4869", "long": "-100.9175"}, {"title": "Nacajuca", "lat": "18.1692", "long": "-93.0197"}, {"title": "Santiago Amoltepec", "lat": "16.6167", "long": "-97.5000"}, {"title": "Tepetzintla", "lat": "19.9667", "long": "-97.8333"}, {"title": "Olintla", "lat": "20.1000", "long": "-97.6833"}, {"title": "Villa Aldama", "lat": "19.6506", "long": "-97.2208"}, {"title": "Emiliano Zapata", "lat": "19.6500", "long": "-98.5500"}, {"title": "Santa Ana Maya", "lat": "20.0000", "long": "-101.0167"}, {"title": "Mecatlan", "lat": "20.2135", "long": "-97.6574"}, {"title": "Tezoatlan de Segura y Luna", "lat": "17.6500", "long": "-97.8167"}, {"title": "Alamos", "lat": "27.0275", "long": "-108.9400"}, {"title": "Cuichapa", "lat": "18.7667", "long": "-96.8667"}, {"title": "Pantepec", "lat": "17.1833", "long": "-93.0500"}, {"title": "Mixtla de Altamirano", "lat": "18.6000", "long": "-97.0000"}, {"title": "Tzintzuntzan", "lat": "19.6283", "long": "-101.5789"}, {"title": "Citlaltepec", "lat": "21.3366", "long": "-97.8784"}, {"title": "San Carlos Yautepec", "lat": "16.5000", "long": "-96.1000"}, {"title": "Jacala", "lat": "21.0053", "long": "-99.1719"}, {"title": "Tlacolulan", "lat": "19.6667", "long": "-97.0000"}, {"title": "Ojuelos de Jalisco", "lat": "21.8642", "long": "-101.5933"}, {"title": "Zaragoza", "lat": "17.9487", "long": "-94.6436"}, {"title": "Abasolo", "lat": "24.0559", "long": "-98.3733"}, {"title": "Tolcayuca", "lat": "19.9500", "long": "-98.9167"}, {"title": "Tlachichilco", "lat": "20.6217", "long": "-98.1994"}, {"title": "Huandacareo", "lat": "19.9906", "long": "-101.2750"}, {"title": "Santa Cruz Itundujia", "lat": "16.8667", "long": "-97.6500"}, {"title": "Temamatla", "lat": "19.2028", "long": "-98.8700"}, {"title": "Epazoyucan", "lat": "20.0177", "long": "-98.6361"}, {"title": "Comala", "lat": "19.3208", "long": "-103.7603"}, {"title": "Amatenango del Valle", "lat": "16.5167", "long": "-92.4000"}, {"title": "Joquicingo", "lat": "19.0556", "long": "-99.5467"}, {"title": "Mineral de Angangueo", "lat": "19.6206", "long": "-100.2844"}, {"title": "Pihuamo", "lat": "19.1889", "long": "-103.3778"}, {"title": "San Nicolas Buenos Aires", "lat": "19.1433", "long": "-97.4767"}, {"title": "Tepetlan", "lat": "19.6667", "long": "-96.8000"}, {"title": "Ixtacomitan", "lat": "17.4167", "long": "-93.1000"}, {"title": "Texcatepec", "lat": "20.5833", "long": "-98.3667"}, {"title": "Soyalo", "lat": "16.9333", "long": "-92.9833"}, {"title": "San Juanito de Escobedo", "lat": "20.8000", "long": "-104.0000"}, {"title": "Ciudad Insurgentes", "lat": "25.2617", "long": "-111.7744"}, {"title": "Tecoh", "lat": "20.7419", "long": "-89.4744"}, {"title": "San Pablo Huixtepec", "lat": "16.8167", "long": "-96.7833"}, {"title": "Emiliano Zapata", "lat": "16.5000", "long": "-92.8667"}, {"title": "Totolapan", "lat": "18.9869", "long": "-98.9197"}, {"title": "Santa Barbara", "lat": "26.8133", "long": "-105.8203"}, {"title": "Santa Catarina Ayotzingo", "lat": "19.2647", "long": "-98.8975"}, {"title": "Villa Purificacion", "lat": "19.7858", "long": "-104.7078"}, {"title": "Almoloya", "lat": "19.7000", "long": "-98.4000"}, {"title": "Santiago Suchilquitongo", "lat": "17.2500", "long": "-96.8833"}, {"title": "Candelaria Loxicha", "lat": "15.9262", "long": "-96.4914"}, {"title": "Jaltocan", "lat": "21.1333", "long": "-98.5383"}, {"title": "Coroneo", "lat": "20.1333", "long": "-100.3333"}, {"title": "Molango", "lat": "20.7844", "long": "-98.7175"}, {"title": "Agua Blanca Iturbide", "lat": "20.3500", "long": "-98.3500"}, {"title": "Teocuitatlan de Corona", "lat": "20.0918", "long": "-103.3785"}, {"title": "Chavinda", "lat": "20.0167", "long": "-102.4500"}, {"title": "Hecelchakan", "lat": "20.1667", "long": "-90.1333"}, {"title": "Minatitlan", "lat": "19.3833", "long": "-104.0500"}, {"title": "San Blas", "lat": "21.5397", "long": "-105.2856"}, {"title": "Almoloya del Rio", "lat": "19.1586", "long": "-99.4886"}, {"title": "La Mision", "lat": "21.1000", "long": "-99.1333"}, {"title": "Santa Isabel Cholula", "lat": "19.0000", "long": "-98.3667"}, {"title": "San Agustin de las Juntas", "lat": "17.0000", "long": "-96.7167"}, {"title": "San Pedro Huamelula", "lat": "16.0167", "long": "-95.6667"}, {"title": "Santa Maria Ajoloapan", "lat": "19.9692", "long": "-99.0353"}, {"title": "Coycoyan de las Flores", "lat": "17.2713", "long": "-98.2741"}, {"title": "Huejuquilla el Alto", "lat": "22.5333", "long": "-103.9167"}, {"title": "Teotitlan", "lat": "18.1333", "long": "-97.0833"}, {"title": "Santa Cruz Atizapan", "lat": "19.1756", "long": "-99.4886"}, {"title": "Coapilla", "lat": "17.1167", "long": "-93.1333"}, {"title": "Cuicatlan", "lat": "17.8000", "long": "-96.9500"}, {"title": "Jilotlan de los Dolores", "lat": "19.3719", "long": "-103.0193"}, {"title": "San Pedro Ixtlahuaca", "lat": "17.0500", "long": "-96.8167"}, {"title": "Santa Maria Jacatepec", "lat": "17.8500", "long": "-96.2000"}, {"title": "Hueyotlipan", "lat": "18.9000", "long": "-97.8500"}, {"title": "Hostotipaquillo", "lat": "21.0603", "long": "-104.0509"}, {"title": "Santo Tomas de los Platanos", "lat": "19.1817", "long": "-100.2589"}, {"title": "Tzitzio", "lat": "19.4449", "long": "-100.9085"}, {"title": "Lototla", "lat": "20.8392", "long": "-98.7178"}, {"title": "Ecatzingo", "lat": "18.9500", "long": "-98.7500"}, {"title": "Zacualpan de Amilpas", "lat": "18.7836", "long": "-98.7594"}, {"title": "Caracuaro", "lat": "19.0167", "long": "-101.1260"}, {"title": "Tlahuiltepa", "lat": "20.9233", "long": "-98.9497"}, {"title": "Santa Maria del Tule", "lat": "17.0465", "long": "-96.6363"}, {"title": "Santo Domingo Petapa", "lat": "16.8167", "long": "-95.1333"}, {"title": "Villa Chalcatongo de Hidalgo", "lat": "16.9929", "long": "-97.5498"}, {"title": "San Pablo Villa de Mitla", "lat": "16.9170", "long": "-96.4000"}, {"title": "San Francisco Ixhuatan", "lat": "16.3514", "long": "-94.4836"}, {"title": "Tepechitlan", "lat": "21.6667", "long": "-103.3333"}, {"title": "Tepetitlan", "lat": "20.1842", "long": "-99.3808"}, {"title": "San Jose de Gracia", "lat": "22.1500", "long": "-102.4167"}, {"title": "Santa Maria Xadani", "lat": "16.3667", "long": "-95.0167"}, {"title": "San Martin Hidalgo", "lat": "20.4350", "long": "-103.9286"}, {"title": "Tlanalapa", "lat": "19.8167", "long": "-98.6000"}, {"title": "El Espinal", "lat": "16.4906", "long": "-95.0444"}, {"title": "Solosuchiapa", "lat": "17.4000", "long": "-93.0000"}, {"title": "Nautla", "lat": "20.2167", "long": "-96.7833"}, {"title": "Mazatan", "lat": "29.0167", "long": "-110.1333"}, {"title": "Punta Prieta", "lat": "28.9289", "long": "-114.1556"}, {"title": "Pueblo Viejo", "lat": "19.1781", "long": "-100.2856"}, {"title": "Ixtapa Zihuatanejo", "lat": "17.6367", "long": "-101.5514"}, {"title": "Coatetelco", "lat": "18.7294", "long": "-99.3256"}, {"title": "Vicam Pueblo", "lat": "27.6422", "long": "-110.2897"}, {"title": "San Quintin", "lat": "30.4837", "long": "-115.9500"}, {"title": "Altata", "lat": "24.6333", "long": "-107.9167"}]