[{"title": "Chisinau", "lat": "47.0228", "long": "28.8353"}, {"title": "Tiraspol", "lat": "46.8403", "long": "29.6433"}, {"title": "Balti", "lat": "47.7667", "long": "27.9167"}, {"title": "Bender", "lat": "46.8333", "long": "29.4833"}, {"title": "Ungheni", "lat": "47.2167", "long": "27.8167"}, {"title": "Cahul", "lat": "45.9167", "long": "28.1836"}, {"title": "Soroca", "lat": "48.1667", "long": "28.3000"}, {"title": "Orhei", "lat": "47.3833", "long": "28.8167"}, {"title": "Comrat", "lat": "46.3167", "long": "28.6667"}, {"title": "Straseni", "lat": "47.1333", "long": "28.6167"}, {"title": "Causeni", "lat": "46.6333", "long": "29.4000"}, {"title": "Edinet", "lat": "48.1667", "long": "27.3167"}, {"title": "Drochia", "lat": "48.0333", "long": "27.7500"}, {"title": "Ialoveni", "lat": "46.9500", "long": "28.7833"}, {"title": "Hincesti", "lat": "46.8167", "long": "28.5833"}, {"title": "Singerei", "lat": "47.6333", "long": "28.1500"}, {"title": "Taraclia", "lat": "45.9000", "long": "28.6689"}, {"title": "Falesti", "lat": "47.5722", "long": "27.7139"}, {"title": "Floresti", "lat": "47.8933", "long": "28.3014"}, {"title": "Cimislia", "lat": "46.5167", "long": "28.7833"}, {"title": "Rezina", "lat": "47.7333", "long": "28.9500"}, {"title": "Anenii Noi", "lat": "46.8833", "long": "29.2167"}, {"title": "Calarasi", "lat": "47.2500", "long": "28.3000"}, {"title": "Nisporeni", "lat": "47.0833", "long": "28.1833"}, {"title": "Riscani", "lat": "47.9572", "long": "27.5539"}, {"title": "Glodeni", "lat": "47.7667", "long": "27.5167"}, {"title": "Basarabeasca", "lat": "46.3336", "long": "28.9614"}, {"title": "Leova", "lat": "46.4833", "long": "28.2500"}, {"title": "Briceni", "lat": "48.3611", "long": "27.0839"}, {"title": "Ocnita", "lat": "48.3853", "long": "27.4392"}, {"title": "Telenesti", "lat": "47.5028", "long": "28.3667"}, {"title": "Donduseni", "lat": "48.2167", "long": "27.5833"}, {"title": "Stefan Voda", "lat": "46.5153", "long": "29.6631"}, {"title": "Criuleni", "lat": "47.2167", "long": "29.1667"}, {"title": "Soldanesti", "lat": "47.8167", "long": "28.8000"}, {"title": "Cantemir", "lat": "46.2667", "long": "28.2167"}, {"title": "Cocieri", "lat": "47.3000", "long": "29.1167"}, {"title": "Ribnita", "lat": "47.7667", "long": "29.0000"}, {"title": "Dubasari", "lat": "47.2667", "long": "29.1667"}, {"title": "Slobozia", "lat": "46.7333", "long": "29.7000"}, {"title": "Durlesti", "lat": "47.0333", "long": "28.9500"}, {"title": "Codru", "lat": "46.9753", "long": "28.8194"}, {"title": "Ceadir-Lunga", "lat": "46.0500", "long": "28.8333"}, {"title": "Vulcanesti", "lat": "45.6833", "long": "28.4028"}, {"title": "Cricova", "lat": "47.1333", "long": "28.8667"}, {"title": "Bacioi", "lat": "46.9122", "long": "28.8839"}, {"title": "Congaz", "lat": "46.1083", "long": "28.5972"}, {"title": "Truseni", "lat": "47.0667", "long": "28.6833"}, {"title": "Costesti", "lat": "46.8678", "long": "28.7689"}, {"title": "Dnestrovsc", "lat": "46.6167", "long": "29.9167"}, {"title": "Singera", "lat": "46.9139", "long": "28.9708"}, {"title": "Borogani", "lat": "46.3667", "long": "28.5167"}, {"title": "Grigoriopol", "lat": "47.1503", "long": "29.2925"}, {"title": "Stauceni", "lat": "47.0875", "long": "28.8703"}, {"title": "Peresecina", "lat": "47.2500", "long": "28.7667"}, {"title": "Copceac", "lat": "45.8500", "long": "28.6944"}, {"title": "Chitcani", "lat": "46.7833", "long": "29.6167"}, {"title": "Camenca", "lat": "48.0167", "long": "28.7167"}]