[{"title": "Ulaanbaatar", "lat": "47.9203", "long": "106.9172"}, {"title": "Moron", "lat": "49.6356", "long": "100.1556"}, {"title": "Erdenet", "lat": "49.0278", "long": "104.0444"}, {"title": "Darhan", "lat": "49.4689", "long": "105.9575"}, {"title": "Choybalsan", "lat": "48.0783", "long": "114.5350"}, {"title": "Olgiy", "lat": "48.9683", "long": "89.9686"}, {"title": "Bayanhongor", "lat": "46.1917", "long": "100.7178"}, {"title": "Ulaangom", "lat": "49.9833", "long": "92.0667"}, {"title": "Hovd", "lat": "48.0042", "long": "91.6406"}, {"title": "Suhbaatar", "lat": "50.2364", "long": "106.2064"}, {"title": "Uliastay", "lat": "47.7428", "long": "96.8433"}, {"title": "Ondorhaan", "lat": "47.3233", "long": "110.6611"}, {"title": "Arvayheer", "lat": "46.2661", "long": "102.7778"}, {"title": "Saynshand", "lat": "44.8917", "long": "110.1367"}, {"title": "Tsetserleg", "lat": "47.4769", "long": "101.4503"}, {"title": "Altay", "lat": "46.3728", "long": "96.2572"}, {"title": "Dzuunmod", "lat": "47.7069", "long": "106.9494"}, {"title": "Baruun-Urt", "lat": "46.6814", "long": "113.2803"}, {"title": "Bulgan", "lat": "48.8119", "long": "103.5336"}, {"title": "Mandalgovi", "lat": "45.7667", "long": "106.2697"}, {"title": "Choyr", "lat": "46.3606", "long": "108.3650"}, {"title": "Dalandzadgad", "lat": "43.5708", "long": "104.4250"}, {"title": "Darhan", "lat": "49.6167", "long": "106.3500"}, {"title": "Nalayh", "lat": "47.7725", "long": "107.2536"}, {"title": "Dalanzadgad", "lat": "43.5700", "long": "104.4258"}, {"title": "Dzuunharaa", "lat": "48.8500", "long": "106.4583"}, {"title": "Harhorin", "lat": "47.1972", "long": "102.8239"}, {"title": "Hoshoot", "lat": "48.9408", "long": "89.1383"}, {"title": "Ulaan-Uul", "lat": "44.3337", "long": "111.2333"}]