[{"title": "Podgorica", "lat": "42.4413", "long": "19.2629"}, {"title": "Niksic", "lat": "42.7778", "long": "18.9500"}, {"title": "Ulcinj", "lat": "41.9200", "long": "19.2000"}, {"title": "Herceg Novi", "lat": "42.4530", "long": "18.5312"}, {"title": "Budva", "lat": "42.2881", "long": "18.8425"}, {"title": "Pljevlja", "lat": "43.3567", "long": "19.3583"}, {"title": "Bijelo Polje", "lat": "43.0400", "long": "19.7500"}, {"title": "Cetinje", "lat": "42.3800", "long": "18.9200"}, {"title": "Plav", "lat": "42.6000", "long": "19.9400"}, {"title": "Bar", "lat": "42.1000", "long": "19.1000"}, {"title": "Kotor", "lat": "42.4300", "long": "18.7700"}, {"title": "Berane", "lat": "42.8400", "long": "19.8600"}, {"title": "Mojkovac", "lat": "42.9600", "long": "19.5800"}, {"title": "Tivat", "lat": "42.4300", "long": "18.7000"}, {"title": "Rozaje", "lat": "42.8400", "long": "20.1600"}, {"title": "Petnjica", "lat": "42.9089", "long": "19.9644"}, {"title": "Danilovgrad", "lat": "42.6100", "long": "19.0500"}, {"title": "Tuzi", "lat": "42.3656", "long": "19.3314"}, {"title": "Golubovci", "lat": "42.3344", "long": "19.2253"}, {"title": "Kolasin", "lat": "42.8236", "long": "19.5225"}, {"title": "Zabljak", "lat": "43.1550", "long": "19.1208"}, {"title": "Gusinje", "lat": "42.5619", "long": "19.8339"}, {"title": "Pluzine", "lat": "43.1500", "long": "18.8300"}, {"title": "Andrijevica", "lat": "42.7300", "long": "19.7900"}, {"title": "Savnik", "lat": "42.9500", "long": "19.1000"}]