[{"title": "Kathmandu", "lat": "27.7172", "long": "85.3240"}, {"title": "Bharatpur", "lat": "27.6833", "long": "84.4333"}, {"title": "Pokhara", "lat": "28.2083", "long": "83.9889"}, {"title": "Jitpur", "lat": "27.6666", "long": "85.3333"}, {"title": "Biratnagar", "lat": "26.4542", "long": "87.2797"}, {"title": "Ghorahi", "lat": "28.0333", "long": "82.4833"}, {"title": "Birganj", "lat": "27.0000", "long": "84.8667"}, {"title": "Butwal", "lat": "27.7000", "long": "83.4660"}, {"title": "Dharan", "lat": "26.8167", "long": "87.2833"}, {"title": "Dhangadhi", "lat": "28.7136", "long": "80.5692"}, {"title": "Janakpur", "lat": "26.7286", "long": "85.9250"}, {"title": "Hetauda", "lat": "27.4167", "long": "85.0333"}, {"title": "Kirtipur", "lat": "27.6667", "long": "85.2833"}, {"title": "Godawari", "lat": "28.9100", "long": "80.5900"}, {"title": "Birendranagar", "lat": "28.6000", "long": "81.6333"}, {"title": "Siraha", "lat": "26.6528", "long": "86.2069"}, {"title": "Bhaktapur", "lat": "27.6722", "long": "85.4278"}, {"title": "Itahari", "lat": "26.6631", "long": "87.2744"}, {"title": "Nepalganj", "lat": "28.0500", "long": "81.6167"}, {"title": "Sanwal", "lat": "27.6061", "long": "83.6606"}, {"title": "Bhairahawa", "lat": "27.5000", "long": "83.4500"}, {"title": "Tilakpur", "lat": "28.5278", "long": "81.1189"}, {"title": "Gulariya", "lat": "28.2056", "long": "81.3472"}, {"title": "Tulsipur", "lat": "28.1278", "long": "82.2956"}, {"title": "Kalaiya", "lat": "27.0333", "long": "85.0000"}, {"title": "Hanumannagar", "lat": "26.5394", "long": "86.7483"}, {"title": "Baglung", "lat": "28.2667", "long": "83.6000"}, {"title": "Palpa", "lat": "27.8667", "long": "83.5500"}, {"title": "Bidur", "lat": "27.8961", "long": "85.1456"}, {"title": "Panauti", "lat": "27.5844", "long": "85.5147"}, {"title": "Khadbari", "lat": "27.3667", "long": "87.2167"}, {"title": "Malangawa", "lat": "26.8667", "long": "85.5667"}, {"title": "Jaleshwar", "lat": "26.6500", "long": "85.8000"}, {"title": "Daksinkali", "lat": "27.6089", "long": "85.2672"}, {"title": "Dadeldhura", "lat": "29.3000", "long": "80.6000"}, {"title": "Ilam", "lat": "26.9080", "long": "87.9260"}, {"title": "Salyan", "lat": "28.3500", "long": "82.1833"}, {"title": "Bhimphedi", "lat": "27.5510", "long": "85.1300"}, {"title": "Ramechhap", "lat": "27.3260", "long": "86.0870"}, {"title": "Bandipur", "lat": "27.9381", "long": "84.4069"}, {"title": "Amritpur", "lat": "28.1167", "long": "81.6000"}, {"title": "Kalaun", "lat": "29.8300", "long": "80.5500"}, {"title": "Jumla", "lat": "29.2500", "long": "82.2167"}]