[{"title": "Amsterdam", "lat": "52.3728", "long": "4.8936"}, {"title": "The Hague", "lat": "52.0800", "long": "4.3100"}, {"title": "Rotterdam", "lat": "51.9167", "long": "4.5000"}, {"title": "Utrecht", "lat": "52.0833", "long": "5.1167"}, {"title": "Maastricht", "lat": "50.8500", "long": "5.6833"}, {"title": "Eindhoven", "lat": "51.4333", "long": "5.4833"}, {"title": "Groningen", "lat": "53.2167", "long": "6.5667"}, {"title": "Tilburg", "lat": "51.5500", "long": "5.0833"}, {"title": "Almere", "lat": "52.3667", "long": "5.2167"}, {"title": "Breda", "lat": "51.5889", "long": "4.7758"}, {"title": "Nijmegen", "lat": "51.8475", "long": "5.8625"}, {"title": "Haarlem", "lat": "52.3833", "long": "4.6333"}, {"title": "Arnhem", "lat": "51.9833", "long": "5.9167"}, {"title": "Apeldoorn", "lat": "52.2167", "long": "5.9667"}, {"title": "Enschede", "lat": "52.2167", "long": "6.9000"}, {"title": "Amersfoort", "lat": "52.1500", "long": "5.3833"}, {"title": "'s-Hertogenbosch", "lat": "51.6833", "long": "5.3000"}, {"title": "Zaanstad", "lat": "52.4697", "long": "4.7767"}, {"title": "Hoofddorp", "lat": "52.3061", "long": "4.6907"}, {"title": "Zwolle", "lat": "52.5167", "long": "6.1000"}, {"title": "Leiden", "lat": "52.1600", "long": "4.4900"}, {"title": "Zoetermeer", "lat": "52.0667", "long": "4.5000"}, {"title": "Leeuwarden", "lat": "53.2000", "long": "5.7833"}, {"title": "Dordrecht", "lat": "51.7958", "long": "4.6783"}, {"title": "Alphen aan den Rijn", "lat": "52.1333", "long": "4.6667"}, {"title": "Alkmaar", "lat": "52.6333", "long": "4.7500"}, {"title": "Delft", "lat": "52.0117", "long": "4.3592"}, {"title": "Emmen", "lat": "52.7833", "long": "6.9000"}, {"title": "Deventer", "lat": "52.2500", "long": "6.1500"}, {"title": "Amstelveen", "lat": "52.3000", "long": "4.8500"}, {"title": "Purmerend", "lat": "52.5000", "long": "4.9500"}, {"title": "Schiedam", "lat": "51.9167", "long": "4.4000"}, {"title": "Zaandam", "lat": "52.4333", "long": "4.8333"}, {"title": "Lelystad", "lat": "52.5000", "long": "5.4833"}, {"title": "Gouda", "lat": "52.0111", "long": "4.7111"}, {"title": "Vlaardingen", "lat": "51.9000", "long": "4.3500"}, {"title": "Spijkenisse", "lat": "51.8500", "long": "4.3333"}, {"title": "Capelle aan den IJssel", "lat": "51.9333", "long": "4.5833"}, {"title": "Veenendaal", "lat": "52.0167", "long": "5.5500"}, {"title": "Assen", "lat": "53.0000", "long": "6.5667"}, {"title": "Katwijk", "lat": "52.2000", "long": "4.4167"}, {"title": "Scheveningen", "lat": "52.1081", "long": "4.2731"}, {"title": "Rijswijk", "lat": "52.0456", "long": "4.3300"}, {"title": "Barendrecht", "lat": "51.8500", "long": "4.5333"}, {"title": "Schagen", "lat": "52.7833", "long": "4.8000"}, {"title": "Middelburg", "lat": "51.5000", "long": "3.6167"}, {"title": "Kerkrade", "lat": "50.8667", "long": "6.0667"}, {"title": "Beverwijk", "lat": "52.4833", "long": "4.6500"}, {"title": "Hoogvliet", "lat": "51.8667", "long": "4.3500"}, {"title": "Maassluis", "lat": "51.9333", "long": "4.2333"}, {"title": "Papendrecht", "lat": "51.8333", "long": "4.6833"}, {"title": "Bussum", "lat": "52.2833", "long": "5.1667"}, {"title": "Hendrik-Ido-Ambacht", "lat": "51.8500", "long": "4.6333"}, {"title": "Diemen", "lat": "52.3333", "long": "4.9667"}, {"title": "Krimpen aan den IJssel", "lat": "51.9167", "long": "4.5833"}, {"title": "Vleuten", "lat": "52.1081", "long": "5.0150"}, {"title": "Heemstede", "lat": "52.3500", "long": "4.6167"}, {"title": "Geldrop", "lat": "51.4222", "long": "5.5578"}, {"title": "Leiderdorp", "lat": "52.1667", "long": "4.5333"}, {"title": "Oegstgeest", "lat": "52.1833", "long": "4.4667"}, {"title": "Voorschoten", "lat": "52.1333", "long": "4.4500"}, {"title": "De Meern", "lat": "52.0781", "long": "5.0281"}, {"title": "Krommenie", "lat": "52.5000", "long": "4.7667"}, {"title": "Alblasserdam", "lat": "51.8702", "long": "4.6667"}, {"title": "Glanerbrug", "lat": "52.2150", "long": "6.9742"}, {"title": "Boskoop", "lat": "52.0667", "long": "4.6500"}, {"title": "Koog aan de Zaan", "lat": "52.4667", "long": "4.8000"}, {"title": "Zaandijk", "lat": "52.4667", "long": "4.8000"}, {"title": "Helmond", "lat": "51.4833", "long": "5.6500"}, {"title": "Hilversum", "lat": "52.2333", "long": "5.1667"}, {"title": "Oss", "lat": "51.7667", "long": "5.5167"}, {"title": "Heerlen", "lat": "50.8833", "long": "5.9833"}, {"title": "Hengelo", "lat": "52.2656", "long": "6.7931"}, {"title": "Roosendaal", "lat": "51.5333", "long": "4.4500"}, {"title": "Hoorn", "lat": "52.6500", "long": "5.0667"}, {"title": "Almelo", "lat": "52.3500", "long": "6.6667"}, {"title": "Ede", "lat": "52.0500", "long": "5.6667"}, {"title": "Velsen-Zuid", "lat": "52.4667", "long": "4.6167"}, {"title": "Bergen op Zoom", "lat": "51.5000", "long": "4.3000"}, {"title": "Zeist", "lat": "52.0906", "long": "5.2331"}, {"title": "Nieuwegein", "lat": "52.0333", "long": "5.0833"}, {"title": "Barneveld", "lat": "52.1333", "long": "5.5833"}, {"title": "Hardenberg", "lat": "52.5667", "long": "6.6167"}, {"title": "Heerhugowaard", "lat": "52.6667", "long": "4.8333"}, {"title": "Doetinchem", "lat": "51.9667", "long": "6.3000"}, {"title": "Roermond", "lat": "51.2000", "long": "5.9833"}, {"title": "Oosterhout", "lat": "51.6431", "long": "4.8569"}, {"title": "Den Helder", "lat": "52.9333", "long": "4.7500"}, {"title": "Hoogeveen", "lat": "52.7333", "long": "6.4833"}, {"title": "Kampen", "lat": "52.5500", "long": "5.9167"}, {"title": "Terneuzen", "lat": "51.3333", "long": "3.8333"}, {"title": "Woerden", "lat": "52.0833", "long": "4.8833"}, {"title": "Houten", "lat": "52.0333", "long": "5.1667"}, {"title": "Sittard", "lat": "51.0000", "long": "5.8667"}, {"title": "Weert", "lat": "51.2500", "long": "5.7000"}, {"title": "IJmuiden", "lat": "52.4586", "long": "4.6194"}, {"title": "Harderwijk", "lat": "52.3500", "long": "5.6167"}, {"title": "Waalwijk", "lat": "51.6833", "long": "5.0667"}, {"title": "Zutphen", "lat": "52.1400", "long": "6.1950"}, {"title": "Ridderkerk", "lat": "51.8667", "long": "4.6000"}, {"title": "Soest", "lat": "52.1833", "long": "5.3000"}, {"title": "Veldhoven", "lat": "51.4200", "long": "5.4050"}, {"title": "Zwijndrecht", "lat": "51.8167", "long": "4.6500"}, {"title": "Drachten", "lat": "53.1000", "long": "6.1000"}, {"title": "Heusden", "lat": "51.6998", "long": "5.1660"}, {"title": "Medemblik", "lat": "52.6833", "long": "5.0333"}, {"title": "Zevenaar", "lat": "51.9167", "long": "6.0667"}, {"title": "Noordwijk", "lat": "52.2333", "long": "4.4333"}, {"title": "Etten-Leur", "lat": "51.5667", "long": "4.6333"}, {"title": "Vlissingen", "lat": "51.4500", "long": "3.5667"}, {"title": "Rheden", "lat": "52.0167", "long": "6.0500"}, {"title": "Nijkerk", "lat": "52.2333", "long": "5.4833"}, {"title": "De Bilt", "lat": "52.1167", "long": "5.2000"}, {"title": "Venray", "lat": "51.5333", "long": "5.9833"}, {"title": "Tiel", "lat": "51.8833", "long": "5.4333"}, {"title": "Huizen", "lat": "52.3000", "long": "5.2500"}, {"title": "Uden", "lat": "51.6500", "long": "5.6167"}, {"title": "Dronten", "lat": "52.5167", "long": "5.7167"}, {"title": "Wijchen", "lat": "51.8000", "long": "5.7333"}, {"title": "Hellevoetsluis", "lat": "51.8167", "long": "4.1333"}, {"title": "Maarssen", "lat": "52.1351", "long": "5.0413"}, {"title": "Wageningen", "lat": "51.9667", "long": "5.6667"}, {"title": "Heemskerk", "lat": "52.5167", "long": "4.6667"}, {"title": "Gorinchem", "lat": "51.8306", "long": "4.9742"}, {"title": "Landgraaf", "lat": "50.9083", "long": "6.0297"}, {"title": "Teijlingen", "lat": "52.2150", "long": "4.5103"}, {"title": "Veghel", "lat": "51.6167", "long": "5.5500"}, {"title": "Venlo", "lat": "51.3667", "long": "6.1667"}, {"title": "Goes", "lat": "51.5000", "long": "3.8833"}, {"title": "Raalte", "lat": "52.3833", "long": "6.2667"}, {"title": "Moerdijk", "lat": "51.6500", "long": "4.6000"}, {"title": "Castricum", "lat": "52.5500", "long": "4.6667"}, {"title": "Bronkhorst", "lat": "52.0833", "long": "6.1833"}, {"title": "Hellendoorn", "lat": "52.3667", "long": "6.4667"}, {"title": "Berg en Dal", "lat": "51.8167", "long": "5.9167"}, {"title": "Coevorden", "lat": "52.6667", "long": "6.7500"}, {"title": "Meppel", "lat": "52.7000", "long": "6.1833"}, {"title": "IJsselstein", "lat": "52.0167", "long": "5.0333"}, {"title": "Tynaarlo", "lat": "53.0833", "long": "6.5833"}, {"title": "Lochem", "lat": "52.1615", "long": "6.4152"}, {"title": "Sneek", "lat": "53.0325", "long": "5.6600"}, {"title": "Boxtel", "lat": "51.5833", "long": "5.3333"}, {"title": "Epe", "lat": "52.3500", "long": "5.9833"}, {"title": "Oldenzaal", "lat": "52.3167", "long": "6.9333"}, {"title": "Aalsmeer", "lat": "52.2667", "long": "4.7500"}, {"title": "Oisterwijk", "lat": "51.5833", "long": "5.2000"}, {"title": "Deurne", "lat": "51.4667", "long": "5.8000"}, {"title": "Vught", "lat": "51.6500", "long": "5.3000"}, {"title": "Waddinxveen", "lat": "52.0500", "long": "4.6500"}, {"title": "Nieuw-Vennep", "lat": "52.2644", "long": "4.6347"}, {"title": "Rosmalen", "lat": "51.7167", "long": "5.3667"}, {"title": "Renkum", "lat": "51.9833", "long": "5.8500"}, {"title": "Stadskanaal", "lat": "52.9833", "long": "6.9500"}, {"title": "Valkenswaard", "lat": "51.3500", "long": "5.4667"}, {"title": "Uithoorn", "lat": "52.2333", "long": "4.8333"}, {"title": "Best", "lat": "51.5167", "long": "5.4000"}, {"title": "Leusden", "lat": "52.1333", "long": "5.4333"}, {"title": "Bergen", "lat": "52.6667", "long": "4.7167"}, {"title": "Heesch", "lat": "51.7333", "long": "5.5333"}, {"title": "Culemborg", "lat": "51.9500", "long": "5.2333"}, {"title": "Sint-Michielsgestel", "lat": "51.6433", "long": "5.3586"}, {"title": "Oosterend", "lat": "53.0036", "long": "6.0664"}, {"title": "Zaltbommel", "lat": "51.8000", "long": "5.2500"}, {"title": "Brunssum", "lat": "50.9500", "long": "5.9667"}, {"title": "Nieuwkoop", "lat": "52.1833", "long": "4.7667"}, {"title": "Boxmeer", "lat": "51.6500", "long": "5.9500"}, {"title": "Winterswijk", "lat": "51.9667", "long": "6.7167"}, {"title": "Dalfsen", "lat": "52.5000", "long": "6.2500"}, {"title": "Langedijk", "lat": "52.6936", "long": "4.7944"}, {"title": "Pijnacker", "lat": "52.0167", "long": "4.4333"}, {"title": "Heerenveen", "lat": "52.9500", "long": "5.9333"}, {"title": "Nunspeet", "lat": "52.3833", "long": "5.7833"}, {"title": "Blerick", "lat": "51.3667", "long": "6.1500"}, {"title": "Veendam", "lat": "53.1000", "long": "6.8833"}, {"title": "Hulst", "lat": "51.2833", "long": "4.0500"}, {"title": "Drimmelen", "lat": "51.6833", "long": "4.8000"}, {"title": "Sliedrecht", "lat": "51.8167", "long": "4.7667"}, {"title": "Aalten", "lat": "51.9333", "long": "6.5833"}, {"title": "Wassenaar", "lat": "52.1500", "long": "4.4000"}, {"title": "Ermelo", "lat": "52.3000", "long": "5.6167"}, {"title": "Dongen", "lat": "51.6333", "long": "4.9333"}, {"title": "Werkendam", "lat": "51.8000", "long": "4.9000"}, {"title": "Geldermalsen", "lat": "51.8833", "long": "5.2833"}, {"title": "Beuningen", "lat": "51.8667", "long": "5.7667"}, {"title": "Tholen", "lat": "51.5333", "long": "4.2000"}, {"title": "Emmeloord", "lat": "52.7097", "long": "5.7508"}, {"title": "Stein", "lat": "50.9667", "long": "5.7667"}, {"title": "Duiven", "lat": "51.9500", "long": "6.0333"}, {"title": "Veenoord", "lat": "52.9875", "long": "6.2914"}, {"title": "Oud-Beijerland", "lat": "51.8167", "long": "4.4000"}, {"title": "Baarn", "lat": "52.2167", "long": "5.2833"}, {"title": "Heiloo", "lat": "52.6000", "long": "4.7167"}, {"title": "Cuijk", "lat": "51.7296", "long": "5.8810"}, {"title": "Nijverdal", "lat": "52.3667", "long": "6.4667"}, {"title": "Steenbergen", "lat": "51.5833", "long": "4.2500"}, {"title": "Voorst", "lat": "52.2333", "long": "6.0833"}, {"title": "Delfzijl", "lat": "53.3333", "long": "6.9167"}, {"title": "Wierden", "lat": "52.3500", "long": "6.6000"}, {"title": "Putten", "lat": "52.2667", "long": "5.6000"}, {"title": "Borne", "lat": "52.3000", "long": "6.7500"}, {"title": "Goirle", "lat": "51.5167", "long": "5.0667"}, {"title": "Haaksbergen", "lat": "52.1500", "long": "6.7500"}, {"title": "Lisse", "lat": "52.2500", "long": "4.5500"}, {"title": "Wijk bij Duurstede", "lat": "51.9833", "long": "5.3333"}, {"title": "Volendam", "lat": "52.4994", "long": "5.0675"}, {"title": "Oldebroek", "lat": "52.4500", "long": "5.9000"}, {"title": "Bloemendaal", "lat": "52.4000", "long": "4.6000"}, {"title": "Loon op Zand", "lat": "51.6667", "long": "5.0333"}, {"title": "Hillegom", "lat": "52.2833", "long": "4.5833"}, {"title": "Elburg", "lat": "52.4500", "long": "5.8500"}, {"title": "'s-Gravenzande", "lat": "52.0000", "long": "4.1667"}, {"title": "Sluis", "lat": "51.3083", "long": "3.3861"}, {"title": "Rucphen", "lat": "51.5333", "long": "4.5833"}, {"title": "Beek en Donk", "lat": "51.5347", "long": "5.6303"}, {"title": "Losser", "lat": "52.2667", "long": "7.0000"}, {"title": "Zeewolde", "lat": "52.3333", "long": "5.5500"}, {"title": "Bilthoven", "lat": "52.1283", "long": "5.1986"}, {"title": "Geertruidenberg", "lat": "51.7000", "long": "4.8586"}, {"title": "Hoogezand", "lat": "53.1572", "long": "6.7533"}, {"title": "Woensdrecht", "lat": "51.4167", "long": "4.3333"}, {"title": "Zundert", "lat": "51.4667", "long": "4.6667"}, {"title": "Nuenen", "lat": "51.4733", "long": "5.5467"}, {"title": "Leerdam", "lat": "51.9000", "long": "5.1000"}, {"title": "Tubbergen", "lat": "52.4000", "long": "6.7833"}, {"title": "Urk", "lat": "52.6667", "long": "5.6000"}, {"title": "Cranendonck", "lat": "51.2853", "long": "5.5881"}, {"title": "Brummen", "lat": "52.0833", "long": "6.1500"}, {"title": "Bladel", "lat": "51.3667", "long": "5.2167"}, {"title": "Nootdorp", "lat": "52.0333", "long": "4.4000"}, {"title": "Rhenen", "lat": "51.9667", "long": "5.5667"}, {"title": "Vianen", "lat": "51.9833", "long": "5.1000"}, {"title": "Haren", "lat": "53.1667", "long": "6.6000"}, {"title": "Edam", "lat": "52.5167", "long": "5.0500"}, {"title": "Weesp", "lat": "52.3000", "long": "5.0500"}, {"title": "Naaldwijk", "lat": "51.9931", "long": "4.2050"}, {"title": "Leek", "lat": "53.1667", "long": "6.3833"}, {"title": "Enkhuizen", "lat": "52.7000", "long": "5.3000"}, {"title": "Someren", "lat": "51.3833", "long": "5.7167"}, {"title": "Eersel", "lat": "51.3500", "long": "5.3167"}, {"title": "Meerssen", "lat": "50.8858", "long": "5.7519"}, {"title": "Echt", "lat": "51.1000", "long": "5.8833"}, {"title": "Druten", "lat": "51.8833", "long": "5.6000"}, {"title": "Hardinxveld-Giessendam", "lat": "51.8167", "long": "4.8333"}, {"title": "Groesbeek", "lat": "51.7833", "long": "5.9333"}, {"title": "Zuidhorn", "lat": "53.2500", "long": "6.4000"}, {"title": "Oirschot", "lat": "51.5000", "long": "5.3000"}, {"title": "Heerde", "lat": "52.3833", "long": "6.0500"}, {"title": "Bergeijk", "lat": "51.3167", "long": "5.3500"}, {"title": "Middelharnis", "lat": "51.7500", "long": "4.1700"}, {"title": "Bodegraven", "lat": "52.0822", "long": "4.7504"}, {"title": "Ommen", "lat": "52.5167", "long": "6.4167"}, {"title": "Waalre", "lat": "51.4000", "long": "5.4667"}, {"title": "Naarden", "lat": "52.2953", "long": "5.1622"}, {"title": "Son en Breugel", "lat": "51.5167", "long": "5.5000"}, {"title": "Sint-Oedenrode", "lat": "51.5636", "long": "5.4608"}, {"title": "Brielle", "lat": "51.9000", "long": "4.1667"}, {"title": "Schaesberg", "lat": "50.9000", "long": "6.0167"}, {"title": "Rijen", "lat": "51.5833", "long": "4.9500"}, {"title": "Schijndel", "lat": "51.6167", "long": "5.4333"}, {"title": "Zandvoort", "lat": "52.3667", "long": "4.5333"}, {"title": "Gennep", "lat": "51.7000", "long": "5.9667"}, {"title": "Staphorst", "lat": "52.6500", "long": "6.2167"}, {"title": "Nederweert", "lat": "51.2833", "long": "5.7500"}, {"title": "Noordwijkerhout", "lat": "52.2667", "long": "4.5000"}, {"title": "Kaatsheuvel", "lat": "51.6667", "long": "5.0667"}, {"title": "Asten", "lat": "51.4000", "long": "5.7500"}, {"title": "Heumen", "lat": "51.7833", "long": "5.8500"}, {"title": "Westervoort", "lat": "51.9667", "long": "5.9667"}, {"title": "Beek", "lat": "50.9333", "long": "5.8000"}, {"title": "Harenkarspel", "lat": "52.7344", "long": "4.7706"}, {"title": "Harlingen", "lat": "53.1736", "long": "5.4272"}, {"title": "Sassenheim", "lat": "52.2258", "long": "4.5225"}, {"title": "Vlagtwedde", "lat": "52.9500", "long": "7.1500"}, {"title": "Nuth", "lat": "50.9167", "long": "5.8833"}, {"title": "Hilvarenbeek", "lat": "51.4833", "long": "5.1333"}, {"title": "Bunnik", "lat": "52.0500", "long": "5.2333"}, {"title": "Julianadorp", "lat": "52.8833", "long": "4.7333"}, {"title": "Breukelen", "lat": "52.1717", "long": "5.0017"}, {"title": "Woudrichem", "lat": "51.8167", "long": "5.0000"}, {"title": "Slochteren", "lat": "53.2167", "long": "6.8000"}, {"title": "Badhoevedorp", "lat": "52.3333", "long": "4.7833"}, {"title": "Lopik", "lat": "51.9667", "long": "4.9500"}, {"title": "Haaren", "lat": "51.6000", "long": "5.2333"}, {"title": "Rozenburg", "lat": "51.9058", "long": "4.2486"}, {"title": "Montfoort", "lat": "52.0500", "long": "4.9500"}, {"title": "Uitgeest", "lat": "52.5333", "long": "4.7167"}, {"title": "Beilen", "lat": "52.8567", "long": "6.5111"}, {"title": "Wezep", "lat": "52.4625", "long": "5.9983"}, {"title": "Woudenberg", "lat": "52.0833", "long": "5.4167"}, {"title": "Beesel", "lat": "51.2833", "long": "6.0333"}, {"title": "Margraten", "lat": "50.8167", "long": "5.8167"}, {"title": "Schoonhoven", "lat": "51.9500", "long": "4.8500"}, {"title": "Raamsdonksveer", "lat": "51.6833", "long": "4.8667"}, {"title": "Winsum", "lat": "53.3312", "long": "6.5157"}, {"title": "Schinnen", "lat": "50.9500", "long": "5.8833"}, {"title": "Reeuwijk", "lat": "52.0500", "long": "4.7300"}, {"title": "Oudenbosch", "lat": "51.5892", "long": "4.5239"}, {"title": "Bergen", "lat": "51.6000", "long": "6.0500"}, {"title": "Joure", "lat": "52.9667", "long": "5.7833"}, {"title": "Dedemsvaart", "lat": "52.6000", "long": "6.4667"}, {"title": "Wolvega", "lat": "52.8761", "long": "6.0014"}, {"title": "Kapelle", "lat": "51.4833", "long": "3.9500"}, {"title": "Franeker", "lat": "53.2000", "long": "5.5333"}, {"title": "Grave", "lat": "51.7667", "long": "5.7333"}, {"title": "Voerendaal", "lat": "50.8833", "long": "5.9333"}, {"title": "Hattem", "lat": "52.4667", "long": "6.0667"}, {"title": "Blaricum", "lat": "52.2667", "long": "5.2500"}, {"title": "Made", "lat": "51.6764", "long": "4.7925"}, {"title": "Wieringerwerf", "lat": "52.8506", "long": "5.0228"}, {"title": "Neerijnen", "lat": "51.8333", "long": "5.2833"}, {"title": "Dokkum", "lat": "53.3269", "long": "5.9981"}, {"title": "Klazienaveen", "lat": "52.7333", "long": "6.9833"}, {"title": "Laren", "lat": "52.2500", "long": "5.2333"}, {"title": "Opmeer", "lat": "52.7000", "long": "4.9500"}, {"title": "Grootegast", "lat": "53.2167", "long": "6.2833"}, {"title": "Appingedam", "lat": "53.3167", "long": "6.8667"}, {"title": "Landsmeer", "lat": "52.4333", "long": "4.9167"}, {"title": "Doesburg", "lat": "52.0167", "long": "6.1333"}, {"title": "Eijsden", "lat": "50.7778", "long": "5.7083"}, {"title": "Sint Anthonis", "lat": "51.6258", "long": "5.8811"}, {"title": "Leidschendam", "lat": "52.0833", "long": "4.4000"}, {"title": "Mierlo", "lat": "51.4411", "long": "5.6194"}, {"title": "Heerlerbaan", "lat": "50.8692", "long": "6.0103"}, {"title": "Zierikzee", "lat": "51.6497", "long": "3.9164"}, {"title": "Lieshout", "lat": "51.5194", "long": "5.5939"}, {"title": "Boekel", "lat": "51.6000", "long": "5.6667"}, {"title": "Simpelveld", "lat": "50.8333", "long": "5.9833"}, {"title": "Hoek van Holland", "lat": "51.9811", "long": "4.1286"}, {"title": "Scherpenzeel", "lat": "52.0833", "long": "5.4667"}, {"title": "Bedum", "lat": "53.3000", "long": "6.6000"}, {"title": "Marum", "lat": "53.1500", "long": "6.2667"}, {"title": "Monnickendam", "lat": "52.4667", "long": "5.0333"}, {"title": "Doorn", "lat": "52.0333", "long": "5.3500"}, {"title": "Borger", "lat": "52.9236", "long": "6.7922"}, {"title": "Vaals", "lat": "50.7667", "long": "6.0167"}, {"title": "Roelofarendsveen", "lat": "52.2000", "long": "4.6333"}, {"title": "Oudewater", "lat": "52.0167", "long": "4.8667"}, {"title": "Eerbeek", "lat": "52.1053", "long": "6.0633"}, {"title": "Lemmer", "lat": "52.8437", "long": "5.7093"}, {"title": "Kudelstaart", "lat": "52.2339", "long": "4.7483"}, {"title": "Oostzaan", "lat": "52.4333", "long": "4.8833"}, {"title": "Ulft", "lat": "51.8908", "long": "6.3797"}, {"title": "Zuidlaren", "lat": "53.0942", "long": "6.6844"}, {"title": "Nieuw-Lekkerland", "lat": "51.8833", "long": "4.6833"}, {"title": "Burgum", "lat": "53.2000", "long": "6.0000"}, {"title": "Heeze", "lat": "51.3825", "long": "5.5683"}, {"title": "Bergambacht", "lat": "51.9333", "long": "4.7833"}, {"title": "Vlist", "lat": "51.9667", "long": "4.7667"}, {"title": "Liesveld", "lat": "51.9156", "long": "4.8456"}, {"title": "Genemuiden", "lat": "52.6244", "long": "6.0397"}, {"title": "Oosterwolde", "lat": "52.9903", "long": "6.2914"}, {"title": "Sint Willebrord", "lat": "51.5503", "long": "4.5917"}, {"title": "Eemnes", "lat": "52.2500", "long": "5.2500"}, {"title": "Ubbergen", "lat": "51.8333", "long": "5.9167"}, {"title": "Nieuwleusen", "lat": "52.5833", "long": "6.2833"}, {"title": "'s-Gravendeel", "lat": "51.7833", "long": "4.6167"}, {"title": "Zoeterwoude", "lat": "52.1333", "long": "4.5000"}, {"title": "Abcoude", "lat": "52.2700", "long": "4.9700"}, {"title": "Wervershoof", "lat": "52.7300", "long": "5.1700"}, {"title": "'s-Heerenberg", "lat": "51.8764", "long": "6.2458"}, {"title": "Strijen", "lat": "51.7500", "long": "4.5500"}, {"title": "Loenen", "lat": "52.2419", "long": "5.0275"}, {"title": "Ter Apel", "lat": "52.8756", "long": "7.0597"}, {"title": "Bolsward", "lat": "53.0667", "long": "5.5333"}]