[{"title": "Noumea", "lat": "-22.2758", "long": "166.4580"}, {"title": "Kone", "lat": "-21.0590", "long": "164.8518"}, {"title": "We", "lat": "-20.9167", "long": "167.2653"}, {"title": "Dumbea", "lat": "-22.1500", "long": "166.4500"}, {"title": "Mont-Dore", "lat": "-22.2157", "long": "166.4665"}, {"title": "Paita", "lat": "-22.1337", "long": "166.3505"}]