[{"title": "Managua", "lat": "12.1544", "long": "-86.2738"}, {"title": "Boaco", "lat": "12.4719", "long": "-85.6594"}, {"title": "Leon", "lat": "12.4344", "long": "-86.8775"}, {"title": "Masaya", "lat": "11.9764", "long": "-86.0875"}, {"title": "Matagalpa", "lat": "12.9286", "long": "-85.9178"}, {"title": "Chinandega", "lat": "12.6297", "long": "-87.1283"}, {"title": "Esteli", "lat": "13.0933", "long": "-86.3547"}, {"title": "Tipitapa", "lat": "12.1964", "long": "-86.0969"}, {"title": "Granada", "lat": "11.9347", "long": "-85.9589"}, {"title": "Jinotega", "lat": "13.0908", "long": "-86.0006"}, {"title": "Bilwi", "lat": "14.0297", "long": "-83.3833"}, {"title": "Juigalpa", "lat": "12.1083", "long": "-85.3694"}, {"title": "Jinotepe", "lat": "11.8472", "long": "-86.1997"}, {"title": "Bluefields", "lat": "12.0139", "long": "-83.7644"}, {"title": "Rivas", "lat": "11.4386", "long": "-85.8286"}, {"title": "San Carlos", "lat": "11.1236", "long": "-84.7780"}, {"title": "Ocotal", "lat": "13.6336", "long": "-86.4753"}, {"title": "Somoto", "lat": "13.4842", "long": "-86.5817"}, {"title": "El Viejo", "lat": "12.6631", "long": "-87.1694"}, {"title": "Ciudad Sandino", "lat": "12.1667", "long": "-86.3553"}, {"title": "Siuna", "lat": "13.7347", "long": "-84.7783"}, {"title": "Nueva Guinea", "lat": "11.6867", "long": "-84.4561"}, {"title": "Diriamba", "lat": "11.8564", "long": "-86.2403"}, {"title": "Wiwili", "lat": "13.6197", "long": "-85.8183"}, {"title": "Jalapa", "lat": "13.9222", "long": "-86.1253"}, {"title": "El Rama", "lat": "12.1617", "long": "-84.2194"}, {"title": "Mulukuku", "lat": "13.1764", "long": "-84.9564"}, {"title": "Waspan", "lat": "14.7408", "long": "-83.9728"}, {"title": "Chichigalpa", "lat": "12.5722", "long": "-87.0267"}, {"title": "Waslala", "lat": "13.3367", "long": "-85.3708"}, {"title": "El Cua", "lat": "13.3678", "long": "-85.6725"}, {"title": "San Rafael del Sur", "lat": "11.8458", "long": "-86.4389"}, {"title": "San Jose de Bocay", "lat": "13.5428", "long": "-85.5397"}, {"title": "Matiguas", "lat": "12.8372", "long": "-85.4619"}, {"title": "Ciudad Dario", "lat": "12.7322", "long": "-86.1233"}, {"title": "Nindiri", "lat": "12.0031", "long": "-86.1178"}, {"title": "Nandaime", "lat": "11.7569", "long": "-86.0528"}, {"title": "Camoapa", "lat": "12.3842", "long": "-85.5119"}, {"title": "La Trinidad", "lat": "12.9678", "long": "-86.2339"}, {"title": "La Concepcion", "lat": "11.9369", "long": "-86.1889"}, {"title": "Nagarote", "lat": "12.2650", "long": "-86.5639"}, {"title": "Sebaco", "lat": "12.8553", "long": "-86.0983"}, {"title": "Masatepe", "lat": "11.9147", "long": "-86.1442"}, {"title": "Bocana de Paiwas", "lat": "12.7878", "long": "-85.1228"}, {"title": "Rio Blanco", "lat": "12.9325", "long": "-85.2244"}, {"title": "San Ramon", "lat": "12.9236", "long": "-85.8389"}, {"title": "Condega", "lat": "13.3617", "long": "-86.3972"}, {"title": "San Marcos", "lat": "11.9081", "long": "-86.2025"}, {"title": "Somotillo", "lat": "13.0447", "long": "-86.9044"}, {"title": "Mateare", "lat": "12.2356", "long": "-86.4289"}, {"title": "La Paz Centro", "lat": "12.3397", "long": "-86.6758"}, {"title": "El Sauce", "lat": "12.8861", "long": "-86.5389"}, {"title": "Larreynaga", "lat": "12.5939", "long": "-86.6797"}, {"title": "Villa El Carmen", "lat": "11.9794", "long": "-86.5103"}, {"title": "Ticuantepe", "lat": "12.0231", "long": "-86.2064"}, {"title": "San Sebastian de Yali", "lat": "13.3061", "long": "-86.1867"}, {"title": "Quilali", "lat": "13.5683", "long": "-86.0267"}, {"title": "Teustepe", "lat": "12.4206", "long": "-85.7997"}, {"title": "Rancho Grande", "lat": "13.2353", "long": "-85.5589"}, {"title": "El Jicaro", "lat": "13.7225", "long": "-86.1347"}, {"title": "Villanueva", "lat": "12.9647", "long": "-86.8150"}, {"title": "San Lorenzo", "lat": "12.3783", "long": "-85.6661"}, {"title": "Telica", "lat": "12.5228", "long": "-86.8597"}, {"title": "La Cruz de Rio Grande", "lat": "13.1122", "long": "-84.1869"}, {"title": "Diriomo", "lat": "11.8753", "long": "-86.0519"}, {"title": "Rosita", "lat": "13.9239", "long": "-84.3989"}, {"title": "El Tortuguero", "lat": "12.8183", "long": "-84.2006"}, {"title": "Corinto", "lat": "12.4819", "long": "-87.1742"}, {"title": "Muelle de los Bueyes", "lat": "12.0664", "long": "-84.5428"}, {"title": "Tola", "lat": "11.4392", "long": "-85.9389"}, {"title": "San Juan de Rio Coco", "lat": "13.5444", "long": "-86.1644"}, {"title": "Pueblo Nuevo", "lat": "13.3797", "long": "-86.4808"}, {"title": "Altagracia", "lat": "11.5672", "long": "-85.5783"}, {"title": "El Castillo de La Concepcion", "lat": "11.0444", "long": "-84.4719"}, {"title": "Telpaneca", "lat": "13.5319", "long": "-86.2872"}, {"title": "Bonanza", "lat": "14.0275", "long": "-84.6211"}, {"title": "San Rafael del Norte", "lat": "13.2128", "long": "-86.1108"}, {"title": "San Isidro", "lat": "12.9283", "long": "-86.1922"}, {"title": "San Juan del Sur", "lat": "11.2533", "long": "-85.8708"}, {"title": "San Miguelito", "lat": "11.4025", "long": "-84.9003"}, {"title": "Santa Teresa", "lat": "11.8039", "long": "-86.1639"}, {"title": "Acoyapa", "lat": "11.9708", "long": "-85.1719"}, {"title": "Posoltega", "lat": "12.5447", "long": "-86.9792"}, {"title": "Belen", "lat": "11.5028", "long": "-85.8889"}, {"title": "San Dionisio", "lat": "12.7625", "long": "-85.8503"}, {"title": "Prinzapolka", "lat": "13.5008", "long": "-84.2244"}, {"title": "Esquipulas", "lat": "12.6639", "long": "-85.7881"}, {"title": "Niquinohomo", "lat": "11.9047", "long": "-86.0956"}, {"title": "Muy Muy", "lat": "12.7625", "long": "-85.6289"}, {"title": "Murra", "lat": "13.7592", "long": "-86.0172"}, {"title": "Achuapa", "lat": "13.0536", "long": "-86.5900"}, {"title": "El Crucero", "lat": "11.9894", "long": "-86.3103"}, {"title": "San Juan de Limay", "lat": "13.1739", "long": "-86.6128"}, {"title": "El Almendro", "lat": "11.6781", "long": "-84.7014"}, {"title": "Puerto Morazan", "lat": "12.7669", "long": "-87.1317"}, {"title": "Villa Sandino", "lat": "12.0500", "long": "-84.9928"}, {"title": "San Lucas", "lat": "13.4144", "long": "-86.6114"}, {"title": "Palacaguina", "lat": "13.4550", "long": "-86.4050"}, {"title": "Terrabona", "lat": "12.7311", "long": "-85.9650"}, {"title": "El Ayote", "lat": "12.4972", "long": "-84.8181"}, {"title": "Santo Domingo", "lat": "12.2631", "long": "-85.0822"}, {"title": "Totogalpa", "lat": "13.5631", "long": "-86.4917"}, {"title": "Comalapa", "lat": "12.2842", "long": "-85.5106"}, {"title": "La Libertad", "lat": "12.2156", "long": "-85.1647"}, {"title": "Nandasmo", "lat": "11.9247", "long": "-86.1197"}, {"title": "Potosi", "lat": "11.4942", "long": "-85.8556"}, {"title": "Tisma", "lat": "12.0831", "long": "-86.0167"}, {"title": "El Realejo", "lat": "12.5428", "long": "-87.1650"}, {"title": "El Jicaral", "lat": "12.7286", "long": "-86.3803"}, {"title": "Moyogalpa", "lat": "11.5403", "long": "-85.6969"}, {"title": "Yalaguina", "lat": "13.4858", "long": "-86.4917"}, {"title": "Santa Rosa del Penon", "lat": "12.8003", "long": "-86.3689"}, {"title": "San Francisco Libre", "lat": "12.5061", "long": "-86.2997"}, {"title": "Kukrahill", "lat": "12.2428", "long": "-83.7486"}, {"title": "Quezalguaque", "lat": "12.5078", "long": "-86.9033"}, {"title": "San Fernando", "lat": "13.6767", "long": "-86.3144"}, {"title": "Greytown", "lat": "10.9467", "long": "-83.7358"}]