[{"title": "Muscat", "lat": "23.6139", "long": "58.5922"}, {"title": "Bawshar", "lat": "23.5333", "long": "58.3833"}, {"title": "As Sib", "lat": "23.6703", "long": "58.1891"}, {"title": "Matrah", "lat": "23.6167", "long": "58.5667"}, {"title": "Salalah", "lat": "17.0197", "long": "54.0897"}, {"title": "As Suwayq", "lat": "23.8494", "long": "57.4386"}, {"title": "As Suwayhirah as Sahil", "lat": "24.3620", "long": "56.7344"}, {"title": "Ar Rustaq", "lat": "23.3908", "long": "57.4244"}, {"title": "Al Mudaybi", "lat": "22.5667", "long": "58.1167"}, {"title": "`Ibri", "lat": "23.2325", "long": "56.4973"}, {"title": "Nizwa", "lat": "22.9333", "long": "57.5333"}, {"title": "Al Buraymi", "lat": "24.2592", "long": "55.7839"}, {"title": "Ibra'", "lat": "22.6833", "long": "58.5500"}, {"title": "Khasab", "lat": "26.1833", "long": "56.2500"}, {"title": "Suhar", "lat": "24.3420", "long": "56.7299"}, {"title": "Sur", "lat": "22.5667", "long": "59.5289"}, {"title": "Hayma'", "lat": "19.9569", "long": "56.2758"}, {"title": "Bahla'", "lat": "22.9680", "long": "57.2980"}, {"title": "Sama'il", "lat": "23.3000", "long": "57.9833"}, {"title": "Al `Amirat", "lat": "23.5242", "long": "58.4989"}, {"title": "Qurayyat", "lat": "23.3200", "long": "58.9080"}, {"title": "Al Madrah Sama'il", "lat": "23.3103", "long": "57.9455"}, {"title": "Shinas", "lat": "24.7500", "long": "56.4667"}, {"title": "Izki", "lat": "22.9339", "long": "57.7750"}, {"title": "Masqat", "lat": "23.5889", "long": "58.4083"}, {"title": "Nakhal", "lat": "23.3833", "long": "57.8167"}, {"title": "Dank", "lat": "23.5500", "long": "56.2500"}, {"title": "Taqah", "lat": "17.0372", "long": "54.4036"}, {"title": "Fanja'", "lat": "23.4675", "long": "58.1061"}, {"title": "Al Mazyunah", "lat": "17.8486", "long": "52.6200"}, {"title": "Mirbat", "lat": "16.9886", "long": "54.6922"}]