[{"title": "Manila", "lat": "14.5958", "long": "120.9772"}, {"title": "Quezon City", "lat": "14.6300", "long": "121.0300"}, {"title": "Davao", "lat": "7.0667", "long": "125.6000"}, {"title": "Caloocan City", "lat": "14.6500", "long": "120.9700"}, {"title": "Canagatan", "lat": "18.0000", "long": "121.8000"}, {"title": "Zamboanga City", "lat": "6.9042", "long": "122.0761"}, {"title": "Cebu City", "lat": "10.3200", "long": "123.7500"}, {"title": "Taguig City", "lat": "14.5200", "long": "121.0500"}, {"title": "Antipolo", "lat": "14.5842", "long": "121.1763"}, {"title": "Pasig City", "lat": "14.5750", "long": "121.0833"}, {"title": "Valenzuela", "lat": "14.7000", "long": "120.9800"}, {"title": "Cagayan de Oro", "lat": "8.4833", "long": "124.6500"}, {"title": "Tondo", "lat": "14.6170", "long": "120.9670"}, {"title": "City of Paranaque", "lat": "14.4700", "long": "121.0200"}, {"title": "Dasmarinas", "lat": "14.3294", "long": "120.9367"}, {"title": "General Santos", "lat": "6.1167", "long": "125.1667"}, {"title": "Bacoor", "lat": "14.4624", "long": "120.9645"}, {"title": "San Jose del Monte", "lat": "14.8139", "long": "121.0453"}, {"title": "Makati City", "lat": "14.5567", "long": "121.0214"}, {"title": "Las Pinas City", "lat": "14.4500", "long": "120.9800"}, {"title": "Bacolod", "lat": "10.6765", "long": "122.9509"}, {"title": "Muntinlupa City", "lat": "14.3800", "long": "121.0500"}, {"title": "City of Calamba", "lat": "14.2167", "long": "121.1667"}, {"title": "Lapu-Lapu City", "lat": "10.3127", "long": "123.9488"}, {"title": "Imus", "lat": "14.4297", "long": "120.9367"}, {"title": "Mandaluyong City", "lat": "14.5800", "long": "121.0300"}, {"title": "Angeles City", "lat": "15.1472", "long": "120.5847"}, {"title": "Pasay City", "lat": "14.5500", "long": "121.0000"}, {"title": "Marikina City", "lat": "14.6500", "long": "121.1000"}, {"title": "Iloilo", "lat": "10.7167", "long": "122.5667"}, {"title": "General Trias", "lat": "14.3833", "long": "120.8833"}, {"title": "Rodriguez", "lat": "14.7167", "long": "121.1167"}, {"title": "Santa Rosa", "lat": "14.3167", "long": "121.1167"}, {"title": "Binan", "lat": "14.3333", "long": "121.0833"}, {"title": "Taytay", "lat": "14.5692", "long": "121.1325"}, {"title": "Malabon", "lat": "14.6600", "long": "120.9600"}, {"title": "Tarlac City", "lat": "15.4869", "long": "120.5900"}, {"title": "Cainta", "lat": "14.5667", "long": "121.1167"}, {"title": "Lipa City", "lat": "13.9411", "long": "121.1622"}, {"title": "Mandaue City", "lat": "10.3333", "long": "123.9333"}, {"title": "Butuan", "lat": "8.9534", "long": "125.5288"}, {"title": "Baguio City", "lat": "16.4119", "long": "120.5933"}, {"title": "Iligan", "lat": "8.2300", "long": "124.2500"}, {"title": "Cabuyao", "lat": "14.2750", "long": "121.1250"}, {"title": "San Fernando", "lat": "15.0333", "long": "120.6833"}, {"title": "San Pedro", "lat": "14.3583", "long": "121.0583"}, {"title": "Batangas", "lat": "13.8300", "long": "121.0000"}, {"title": "Cabanatuan City", "lat": "15.4908", "long": "120.9678"}, {"title": "Cotabato", "lat": "7.2200", "long": "124.2500"}, {"title": "Binangonan", "lat": "14.4514", "long": "121.1919"}, {"title": "Tanza", "lat": "14.3944", "long": "120.8531"}, {"title": "Puerto Princesa", "lat": "9.7500", "long": "118.7500"}, {"title": "Navotas", "lat": "14.6667", "long": "120.9417"}, {"title": "Tagum", "lat": "7.4478", "long": "125.8078"}, {"title": "Silang", "lat": "14.2306", "long": "120.9750"}, {"title": "Mabalacat", "lat": "15.2167", "long": "120.5833"}, {"title": "Santa Maria", "lat": "14.8183", "long": "120.9563"}, {"title": "San Pablo", "lat": "14.0700", "long": "121.3250"}, {"title": "Lucena", "lat": "13.9333", "long": "121.6167"}, {"title": "San Mateo", "lat": "14.6969", "long": "121.1219"}, {"title": "Talisay", "lat": "10.2500", "long": "123.8333"}, {"title": "Malolos", "lat": "14.8433", "long": "120.8114"}, {"title": "Marilao", "lat": "14.7581", "long": "120.9481"}, {"title": "Olongapo", "lat": "14.8300", "long": "120.2800"}, {"title": "Tacloban", "lat": "11.2444", "long": "125.0039"}, {"title": "Meycauayan", "lat": "14.7333", "long": "120.9500"}, {"title": "Santa Ana", "lat": "14.5800", "long": "121.0120"}, {"title": "Ormoc", "lat": "11.0106", "long": "124.6075"}, {"title": "Santo Tomas", "lat": "14.0833", "long": "121.1833"}, {"title": "Valencia", "lat": "7.9042", "long": "125.0928"}, {"title": "Trece Martires City", "lat": "14.2833", "long": "120.8667"}, {"title": "Naga City", "lat": "13.6244", "long": "123.1864"}, {"title": "Pagadian", "lat": "7.8272", "long": "123.4364"}, {"title": "Legazpi City", "lat": "13.1333", "long": "123.7333"}, {"title": "Panabo", "lat": "7.3000", "long": "125.6833"}, {"title": "Marawi City", "lat": "8.0000", "long": "124.3000"}, {"title": "Toledo", "lat": "10.3833", "long": "123.6500"}, {"title": "San Carlos City", "lat": "15.9281", "long": "120.3489"}, {"title": "Kabankalan", "lat": "9.9833", "long": "122.8167"}, {"title": "Koronadal", "lat": "6.5000", "long": "124.8500"}, {"title": "Tanauan", "lat": "14.0833", "long": "121.1500"}, {"title": "General Mariano Alvarez", "lat": "14.3000", "long": "121.0000"}, {"title": "Bago", "lat": "10.5388", "long": "122.8384"}, {"title": "Malaybalay", "lat": "8.1564", "long": "125.1333"}, {"title": "Digos", "lat": "6.7500", "long": "125.3500"}, {"title": "Calbayog City", "lat": "12.0667", "long": "124.6000"}, {"title": "Sorsogon", "lat": "12.9742", "long": "124.0058"}, {"title": "Roxas City", "lat": "11.5894", "long": "122.7511"}, {"title": "Dagupan City", "lat": "16.0430", "long": "120.3340"}, {"title": "Santa Cruz", "lat": "14.5998", "long": "120.9802"}, {"title": "Mexico", "lat": "15.0667", "long": "120.7167"}, {"title": "Lubao", "lat": "14.9333", "long": "120.6000"}, {"title": "Polomolok", "lat": "6.2167", "long": "125.0667"}, {"title": "San Miguel", "lat": "15.1458", "long": "120.9783"}, {"title": "Baliuag", "lat": "14.9540", "long": "120.9010"}, {"title": "Surigao", "lat": "9.7897", "long": "125.4958"}, {"title": "Concepcion", "lat": "15.3249", "long": "120.6554"}, {"title": "Tuguegarao", "lat": "17.6133", "long": "121.7303"}, {"title": "Midsayap", "lat": "7.1917", "long": "124.5333"}, {"title": "Pikit", "lat": "7.0500", "long": "124.6667"}, {"title": "Naic", "lat": "14.3167", "long": "120.7667"}, {"title": "Sariaya", "lat": "13.9667", "long": "121.5333"}, {"title": "Kidapawan", "lat": "7.0083", "long": "125.0894"}, {"title": "Pandi", "lat": "14.8667", "long": "120.9500"}, {"title": "Cadiz", "lat": "10.9500", "long": "123.3000"}, {"title": "Ilagan", "lat": "17.1489", "long": "121.8894"}, {"title": "Danao", "lat": "10.5333", "long": "123.9333"}, {"title": "Poblacion", "lat": "10.4167", "long": "123.9667"}, {"title": "Capas", "lat": "15.3372", "long": "120.5900"}, {"title": "San Juan", "lat": "14.6000", "long": "121.0300"}, {"title": "San Jose", "lat": "12.3528", "long": "121.0676"}, {"title": "Minglanilla", "lat": "10.2450", "long": "123.7964"}, {"title": "San Andres", "lat": "14.5739", "long": "121.0039"}, {"title": "Consolacion", "lat": "10.4000", "long": "123.9500"}, {"title": "San Jose", "lat": "15.7919", "long": "120.9900"}, {"title": "Mariveles", "lat": "14.4333", "long": "120.4833"}, {"title": "Sagay", "lat": "10.9000", "long": "123.4167"}, {"title": "Santiago", "lat": "16.6833", "long": "121.5500"}, {"title": "Mati", "lat": "6.9483", "long": "126.2272"}, {"title": "Payatas", "lat": "14.7099", "long": "121.0997"}, {"title": "Calapan", "lat": "13.4140", "long": "121.1800"}, {"title": "Urdaneta", "lat": "15.9761", "long": "120.5711"}, {"title": "Arayat", "lat": "15.1493", "long": "120.7692"}, {"title": "Bocaue", "lat": "14.8000", "long": "120.9333"}, {"title": "Santamesa", "lat": "14.6000", "long": "121.0167"}, {"title": "Malasiqui", "lat": "15.9167", "long": "120.4167"}, {"title": "Calabayan", "lat": "16.7667", "long": "121.7833"}, {"title": "Tabaco", "lat": "13.3500", "long": "123.7333"}, {"title": "Porac", "lat": "15.0719", "long": "120.5419"}, {"title": "Ozamiz City", "lat": "8.1500", "long": "123.8500"}, {"title": "Tanay", "lat": "14.4972", "long": "121.2864"}, {"title": "Poblacion", "lat": "14.3854", "long": "121.0290"}, {"title": "La Trinidad", "lat": "16.4621", "long": "120.5877"}, {"title": "Candelaria", "lat": "13.9311", "long": "121.4233"}, {"title": "Dipolog", "lat": "8.5872", "long": "123.3408"}, {"title": "Jolo", "lat": "6.0000", "long": "121.0000"}, {"title": "Dumaguete City", "lat": "9.3103", "long": "123.3081"}, {"title": "Carcar", "lat": "10.1167", "long": "123.6333"}, {"title": "Nasugbu", "lat": "14.0667", "long": "120.6333"}, {"title": "Gingoog", "lat": "8.8167", "long": "125.1000"}, {"title": "Norzagaray", "lat": "14.9167", "long": "121.0500"}, {"title": "Floridablanca", "lat": "14.9333", "long": "120.5000"}, {"title": "Angono", "lat": "14.5234", "long": "121.1536"}, {"title": "Paco", "lat": "14.5830", "long": "120.9830"}, {"title": "Daraga", "lat": "13.1619", "long": "123.6939"}, {"title": "Hagonoy", "lat": "14.8333", "long": "120.7333"}, {"title": "Naga", "lat": "10.2167", "long": "123.7500"}, {"title": "Talavera", "lat": "15.5839", "long": "120.9189"}, {"title": "San Carlos", "lat": "10.4929", "long": "123.4095"}, {"title": "Guagua", "lat": "14.9667", "long": "120.6333"}, {"title": "Silay", "lat": "10.8000", "long": "122.9667"}, {"title": "City of Isabela", "lat": "6.7000", "long": "121.9667"}, {"title": "Santo Tomas", "lat": "7.5333", "long": "125.6167"}, {"title": "Rosario", "lat": "13.8460", "long": "121.2060"}, {"title": "Guimba", "lat": "15.6606", "long": "120.7650"}, {"title": "San Fernando", "lat": "16.6200", "long": "120.3200"}, {"title": "Santa Cruz", "lat": "14.2833", "long": "121.4167"}, {"title": "Bagong Silangan", "lat": "14.7094", "long": "121.1000"}, {"title": "Western Bicutan", "lat": "14.5094", "long": "121.0381"}, {"title": "Magalang", "lat": "15.2167", "long": "120.6667"}, {"title": "Central Signal Village", "lat": "14.5106", "long": "121.0576"}, {"title": "Gapan", "lat": "15.3122", "long": "120.9489"}, {"title": "Bayawan", "lat": "9.3667", "long": "122.8000"}, {"title": "Tabuk", "lat": "17.4069", "long": "121.4425"}, {"title": "Calumpit", "lat": "14.9167", "long": "120.7667"}, {"title": "Candaba", "lat": "15.0933", "long": "120.8283"}, {"title": "Dinalupihan", "lat": "14.8833", "long": "120.4667"}, {"title": "Banco Filipino International Village", "lat": "14.4499", "long": "120.9996"}, {"title": "Apalit", "lat": "14.9496", "long": "120.7587"}, {"title": "Pandacan", "lat": "14.5940", "long": "121.0070"}, {"title": "Ligao", "lat": "13.2167", "long": "123.5167"}, {"title": "Malita", "lat": "6.4000", "long": "125.6000"}, {"title": "Plaridel", "lat": "14.8869", "long": "120.8569"}, {"title": "Guiguinto", "lat": "14.8333", "long": "120.8833"}, {"title": "Los Banos", "lat": "14.1667", "long": "121.2167"}, {"title": "Samal", "lat": "7.0500", "long": "125.7333"}, {"title": "Himamaylan", "lat": "10.1000", "long": "122.8667"}, {"title": "Bongao", "lat": "5.0292", "long": "119.7731"}, {"title": "San Ildefonso", "lat": "15.0789", "long": "120.9419"}, {"title": "Mangaldan", "lat": "16.0700", "long": "120.4025"}, {"title": "Iriga City", "lat": "13.4231", "long": "123.4122"}, {"title": "Putatan", "lat": "14.3984", "long": "121.0364"}, {"title": "San Juan", "lat": "13.8260", "long": "121.3960"}, {"title": "Daet", "lat": "14.1142", "long": "122.9564"}, {"title": "Rosario", "lat": "14.4167", "long": "120.8500"}, {"title": "Manolo Fortich", "lat": "8.3675", "long": "124.8656"}, {"title": "Libmanan", "lat": "13.6964", "long": "123.0600"}, {"title": "Tayabas", "lat": "14.0167", "long": "121.5833"}, {"title": "Laoag", "lat": "18.1978", "long": "120.5936"}, {"title": "Subic", "lat": "14.8769", "long": "120.2328"}, {"title": "Kawit", "lat": "14.4333", "long": "120.9000"}, {"title": "Baybay", "lat": "10.6833", "long": "124.8000"}, {"title": "Tatalon", "lat": "14.6242", "long": "121.0153"}, {"title": "Pulilan", "lat": "14.9020", "long": "120.8490"}, {"title": "Tacurong", "lat": "6.6800", "long": "124.6700"}, {"title": "Cavite City", "lat": "14.4833", "long": "120.9000"}, {"title": "Naujan", "lat": "13.3233", "long": "121.3028"}, {"title": "Quezon", "lat": "7.7306", "long": "125.1000"}, {"title": "Glan", "lat": "5.8167", "long": "125.2000"}, {"title": "Carmona", "lat": "14.3167", "long": "121.0500"}, {"title": "Bayugan", "lat": "8.7100", "long": "125.7500"}, {"title": "Talisay", "lat": "10.7333", "long": "122.9667"}, {"title": "Lingayen", "lat": "16.0167", "long": "120.2333"}, {"title": "Labo", "lat": "14.1561", "long": "122.8294"}, {"title": "Cawayan", "lat": "9.9667", "long": "122.6167"}, {"title": "Maramag", "lat": "7.7631", "long": "125.0050"}, {"title": "Malate", "lat": "14.5642", "long": "120.9913"}, {"title": "Tagbilaran City", "lat": "9.6500", "long": "123.8500"}, {"title": "Pateros", "lat": "14.5417", "long": "121.0667"}, {"title": "Carmen", "lat": "7.2000", "long": "124.7833"}, {"title": "Tiaong", "lat": "13.9500", "long": "121.3167"}, {"title": "Catbalogan", "lat": "11.7833", "long": "124.8833"}, {"title": "Bulan", "lat": "12.6697", "long": "123.8758"}, {"title": "Malungun", "lat": "6.2667", "long": "125.2833"}, {"title": "Sultan Kudarat", "lat": "7.2333", "long": "124.2500"}, {"title": "Balanga", "lat": "14.6800", "long": "120.5300"}, {"title": "Masbate", "lat": "12.2700", "long": "123.5800"}, {"title": "Sindangan", "lat": "8.2386", "long": "122.9986"}, {"title": "Paniqui", "lat": "15.6681", "long": "120.5789"}, {"title": "San Rafael", "lat": "14.9500", "long": "120.9667"}, {"title": "Parang", "lat": "7.3744", "long": "124.2686"}, {"title": "Guihulngan", "lat": "10.1167", "long": "123.2667"}, {"title": "Calasiao", "lat": "16.0167", "long": "120.3667"}, {"title": "Santa Cruz", "lat": "6.8333", "long": "125.4167"}, {"title": "Lamitan", "lat": "6.6500", "long": "122.1333"}, {"title": "Talipao", "lat": "5.9760", "long": "121.1087"}, {"title": "Catarman", "lat": "12.4994", "long": "124.6328"}, {"title": "Isulan", "lat": "6.6333", "long": "124.6000"}, {"title": "San Isidro", "lat": "14.4685", "long": "121.0118"}, {"title": "Upper Bicutan", "lat": "14.4873", "long": "121.0503"}, {"title": "Kalibo", "lat": "11.7072", "long": "122.3700"}, {"title": "San Antonio", "lat": "14.4656", "long": "121.0311"}, {"title": "Ipil", "lat": "7.7822", "long": "122.5867"}, {"title": "Bayanan", "lat": "14.4078", "long": "121.0500"}, {"title": "Prosperidad", "lat": "8.6057", "long": "125.9153"}, {"title": "Alabel", "lat": "6.1023", "long": "125.2868"}, {"title": "Lower Bicutan", "lat": "14.5033", "long": "121.0642"}, {"title": "Maasin", "lat": "10.1300", "long": "124.8500"}, {"title": "Nabunturan", "lat": "7.6008", "long": "125.9656"}, {"title": "West Rembo", "lat": "14.5667", "long": "121.0667"}, {"title": "Bel-Air", "lat": "14.5639", "long": "121.0263"}, {"title": "Cabadbaran", "lat": "9.1228", "long": "125.5346"}, {"title": "Alabang", "lat": "14.4184", "long": "121.0385"}, {"title": "Balagtas", "lat": "14.8145", "long": "120.9085"}, {"title": "Sucat", "lat": "14.4600", "long": "121.0500"}, {"title": "Virac", "lat": "13.5833", "long": "124.2333"}, {"title": "Poblacion", "lat": "10.2500", "long": "123.9500"}, {"title": "Bagumbayan", "lat": "14.4744", "long": "121.0569"}, {"title": "Maharlika Village", "lat": "14.4989", "long": "121.0533"}, {"title": "San Dionisio", "lat": "14.4839", "long": "120.9925"}, {"title": "Pavia", "lat": "10.7750", "long": "122.5417"}, {"title": "Oroquieta", "lat": "8.4833", "long": "123.8000"}, {"title": "Borongan", "lat": "11.6094", "long": "125.4361"}, {"title": "Bayombong", "lat": "16.4833", "long": "121.1500"}, {"title": "Bignay", "lat": "14.7456", "long": "120.9961"}, {"title": "Cupang", "lat": "14.4315", "long": "121.0486"}, {"title": "Tunasan", "lat": "14.3725", "long": "121.0364"}, {"title": "Teresa", "lat": "14.5586", "long": "121.2083"}, {"title": "San Jose", "lat": "10.7433", "long": "121.9411"}, {"title": "Don Bosco", "lat": "14.4817", "long": "121.0258"}, {"title": "Taal", "lat": "13.8833", "long": "120.9333"}, {"title": "Tandag", "lat": "9.0789", "long": "126.1986"}, {"title": "Don Galo", "lat": "14.5072", "long": "120.9844"}, {"title": "Pinagkaisahan", "lat": "14.5229", "long": "121.0555"}, {"title": "Naval", "lat": "11.5833", "long": "124.4500"}, {"title": "Caridad", "lat": "14.4828", "long": "120.8958"}, {"title": "Karuhatan", "lat": "14.6883", "long": "120.9761"}, {"title": "Boac", "lat": "13.4500", "long": "121.8333"}, {"title": "Pansol", "lat": "14.6514", "long": "121.0800"}, {"title": "Bagong Pag-Asa", "lat": "14.6622", "long": "121.0331"}, {"title": "Quiapo", "lat": "14.6000", "long": "120.9830"}, {"title": "Vigan", "lat": "17.5747", "long": "120.3869"}, {"title": "Iba", "lat": "15.3333", "long": "119.9833"}, {"title": "Marikina Heights", "lat": "14.6534", "long": "121.1187"}, {"title": "Santo Cristo", "lat": "14.6603", "long": "121.0300"}, {"title": "Noveleta", "lat": "14.4333", "long": "120.8833"}, {"title": "Binondo", "lat": "14.6000", "long": "120.9670"}, {"title": "Plainview", "lat": "14.5777", "long": "121.0337"}, {"title": "Bangued", "lat": "17.5965", "long": "120.6179"}, {"title": "Guadalupe Nuevo", "lat": "14.5587", "long": "121.0446"}, {"title": "Tubod", "lat": "8.0500", "long": "123.8000"}, {"title": "Santo Nino", "lat": "14.5033", "long": "121.0031"}, {"title": "Mamburao", "lat": "13.2233", "long": "120.5960"}, {"title": "Palayan City", "lat": "15.5422", "long": "121.0844"}, {"title": "Baclaran", "lat": "14.5319", "long": "120.9942"}, {"title": "Pinyahan", "lat": "14.6400", "long": "121.0461"}, {"title": "Baler", "lat": "15.7583", "long": "121.5625"}, {"title": "Krus na Ligas", "lat": "14.6442", "long": "121.0636"}, {"title": "Buli", "lat": "14.4430", "long": "121.0510"}, {"title": "Balintawak", "lat": "14.6506", "long": "121.0014"}, {"title": "Mambajao", "lat": "9.2500", "long": "124.7167"}, {"title": "Romblon", "lat": "12.5500", "long": "122.2800"}, {"title": "Soccorro", "lat": "14.6179", "long": "121.0558"}, {"title": "Jordan", "lat": "10.6000", "long": "122.6000"}, {"title": "San Roque", "lat": "14.4800", "long": "120.9011"}, {"title": "Calumpang", "lat": "14.6249", "long": "121.0865"}, {"title": "San Miguel", "lat": "14.6000", "long": "121.0000"}, {"title": "Project Six", "lat": "14.6561", "long": "121.0408"}, {"title": "Barangka", "lat": "14.6297", "long": "121.0803"}, {"title": "San Martin De Porres", "lat": "14.4817", "long": "121.0425"}, {"title": "Shariff Aguak", "lat": "6.8647", "long": "124.4417"}, {"title": "Tambo", "lat": "14.5164", "long": "120.9889"}, {"title": "Balangkas", "lat": "14.7381", "long": "120.9978"}, {"title": "Cabarroguis", "lat": "16.5103", "long": "121.5222"}, {"title": "Santa Ana", "lat": "14.5277", "long": "121.0766"}, {"title": "Camaligan", "lat": "13.6208", "long": "123.1656"}, {"title": "Siquijor", "lat": "9.1800", "long": "123.5800"}, {"title": "Loyola Heights", "lat": "14.6403", "long": "121.0744"}, {"title": "La Huerta", "lat": "14.4972", "long": "120.9953"}, {"title": "General Emilio Aguinaldo", "lat": "14.1833", "long": "120.8000"}, {"title": "Napindan", "lat": "14.5398", "long": "121.0966"}, {"title": "Bambang", "lat": "14.5228", "long": "121.0689"}, {"title": "Tuktukan", "lat": "14.5280", "long": "121.0718"}, {"title": "Bontoc", "lat": "17.0900", "long": "120.9772"}, {"title": "Mariana", "lat": "14.6194", "long": "121.0347"}, {"title": "Lagawe", "lat": "16.7975", "long": "121.1228"}, {"title": "Ermita", "lat": "14.5830", "long": "120.9830"}, {"title": "Fort Bonifacio", "lat": "14.5311", "long": "121.0478"}, {"title": "Kabugao", "lat": "18.0239", "long": "121.1833"}, {"title": "Magugpo Poblacion", "lat": "7.3821", "long": "125.8017"}, {"title": "Basco", "lat": "20.4500", "long": "121.9667"}, {"title": "Santa Cruz", "lat": "14.1167", "long": "121.2833"}, {"title": "Koronadal", "lat": "6.2541", "long": "124.9922"}, {"title": "San Jose", "lat": "10.1800", "long": "125.5683"}, {"title": "Tabuk", "lat": "17.4084", "long": "121.2785"}, {"title": "Pili", "lat": "13.7177", "long": "123.7448"}, {"title": "Alaminos", "lat": "16.1553", "long": "119.9808"}, {"title": "Pili", "lat": "13.5561", "long": "123.2756"}, {"title": "Oton", "lat": "10.6931", "long": "122.4736"}, {"title": "Bislig", "lat": "8.2133", "long": "126.3161"}, {"title": "M'lang", "lat": "6.9500", "long": "124.8833"}, {"title": "Balayan", "lat": "13.9333", "long": "120.7333"}, {"title": "Escalante", "lat": "10.8333", "long": "123.5000"}, {"title": "Balamban", "lat": "10.4667", "long": "123.7833"}, {"title": "Gerona", "lat": "15.6069", "long": "120.5986"}, {"title": "Lopez", "lat": "13.8840", "long": "122.2604"}, {"title": "Daanbantayan", "lat": "11.2500", "long": "124.0000"}, {"title": "Monkayo", "lat": "7.8239", "long": "126.0536"}, {"title": "Lemery", "lat": "13.9167", "long": "120.8833"}, {"title": "Kabacan", "lat": "7.1167", "long": "124.8167"}, {"title": "Indanan", "lat": "6.0000", "long": "120.9667"}, {"title": "Santa Barbara", "lat": "16.0031", "long": "120.4008"}, {"title": "Palimbang", "lat": "6.2167", "long": "124.2000"}, {"title": "Sablayan", "lat": "12.8428", "long": "120.7750"}, {"title": "Bauan", "lat": "13.7917", "long": "121.0085"}, {"title": "Salaman", "lat": "6.6333", "long": "124.0667"}, {"title": "Pongotan", "lat": "7.1269", "long": "125.8975"}, {"title": "Victorias", "lat": "10.9000", "long": "123.0833"}, {"title": "Pinamalayan", "lat": "13.0364", "long": "121.4889"}, {"title": "Compostela", "lat": "7.6667", "long": "126.0833"}, {"title": "Polangui", "lat": "13.2922", "long": "123.4856"}, {"title": "Bogo", "lat": "11.0167", "long": "124.0000"}, {"title": "Banga", "lat": "6.3000", "long": "124.7833"}, {"title": "Surallah", "lat": "6.3667", "long": "124.7333"}, {"title": "Hinigaran", "lat": "10.2667", "long": "122.8500"}, {"title": "Calabanga", "lat": "13.7089", "long": "123.2161"}, {"title": "Passi", "lat": "11.1000", "long": "122.6333"}, {"title": "Murcia", "lat": "10.6000", "long": "123.0333"}, {"title": "Calauan", "lat": "14.1500", "long": "121.3167"}, {"title": "Solana", "lat": "17.6522", "long": "121.6914"}, {"title": "Baras", "lat": "14.5167", "long": "121.2667"}, {"title": "Aroroy", "lat": "12.5125", "long": "123.3989"}, {"title": "Echague", "lat": "16.7056", "long": "121.6761"}, {"title": "San Fabian", "lat": "16.1500", "long": "120.4500"}, {"title": "Makilala", "lat": "6.9667", "long": "125.0833"}, {"title": "Calaca", "lat": "13.9300", "long": "120.8131"}, {"title": "Camiling", "lat": "15.6867", "long": "120.4131"}, {"title": "Baggao", "lat": "17.9347", "long": "121.7733"}, {"title": "Binmaley", "lat": "16.0323", "long": "120.2690"}, {"title": "Nabua", "lat": "13.4083", "long": "123.3750"}, {"title": "Bantayan", "lat": "11.2000", "long": "123.7333"}, {"title": "Tagaytay", "lat": "14.1000", "long": "120.9333"}, {"title": "Cabiao", "lat": "15.2522", "long": "120.8575"}, {"title": "Guinobatan", "lat": "13.1833", "long": "123.6000"}, {"title": "Batarasa", "lat": "8.6700", "long": "117.6200"}, {"title": "Dapitan", "lat": "8.6549", "long": "123.4243"}, {"title": "Science City of Munoz", "lat": "15.7153", "long": "120.9039"}, {"title": "Bais", "lat": "9.5907", "long": "123.1213"}, {"title": "Bolinao", "lat": "16.3881", "long": "119.8947"}, {"title": "San Antonio", "lat": "15.3078", "long": "120.8533"}, {"title": "Maco", "lat": "7.3619", "long": "125.8553"}, {"title": "Taytay", "lat": "10.8167", "long": "119.5167"}, {"title": "Siaton", "lat": "9.0667", "long": "123.0333"}, {"title": "Mabinay", "lat": "9.7333", "long": "122.9167"}, {"title": "Tanjay", "lat": "9.5167", "long": "123.1583"}, {"title": "Calatrava", "lat": "10.6000", "long": "123.4833"}, {"title": "Carmen", "lat": "7.3606", "long": "125.7064"}, {"title": "Bulacan", "lat": "14.7928", "long": "120.8789"}, {"title": "Siasi", "lat": "5.5462", "long": "120.8145"}, {"title": "Ubay", "lat": "10.0560", "long": "124.4729"}, {"title": "Buhi", "lat": "13.4347", "long": "123.5167"}, {"title": "Matalam", "lat": "7.0833", "long": "124.9000"}, {"title": "Lambunao", "lat": "11.0500", "long": "122.4833"}, {"title": "Barili", "lat": "10.1167", "long": "123.5333"}, {"title": "San Jose", "lat": "13.8772", "long": "121.1050"}, {"title": "Kapalong", "lat": "7.5854", "long": "125.7052"}, {"title": "Tagoloan", "lat": "8.5333", "long": "124.7500"}, {"title": "San Francisco", "lat": "8.5050", "long": "125.9771"}, {"title": "Malapatan", "lat": "5.9667", "long": "125.2833"}, {"title": "Jaen", "lat": "15.3392", "long": "120.9069"}, {"title": "Poblacion", "lat": "6.8000", "long": "124.6333"}, {"title": "Robles", "lat": "10.3500", "long": "123.0667"}, {"title": "Patikul", "lat": "6.0667", "long": "121.1000"}, {"title": "Mangatarem", "lat": "15.7874", "long": "120.2921"}, {"title": "Bauang", "lat": "16.5333", "long": "120.3333"}, {"title": "Pagbilao", "lat": "13.9720", "long": "121.6870"}, {"title": "Pototan", "lat": "10.9500", "long": "122.6333"}, {"title": "Limay", "lat": "14.5619", "long": "120.5983"}, {"title": "Macabebe", "lat": "14.9081", "long": "120.7156"}, {"title": "Argao", "lat": "9.8833", "long": "123.6000"}, {"title": "Bamban", "lat": "15.2742", "long": "120.5669"}, {"title": "Bustos", "lat": "14.9500", "long": "120.9167"}, {"title": "Narra", "lat": "9.2833", "long": "118.4167"}, {"title": "Hermosa", "lat": "14.8333", "long": "120.5000"}, {"title": "Santa Catalina", "lat": "9.3331", "long": "122.8658"}, {"title": "Manaoag", "lat": "16.0439", "long": "120.4856"}, {"title": "Umingan", "lat": "15.9289", "long": "120.8419"}, {"title": "Bongabong", "lat": "12.7469", "long": "121.4881"}, {"title": "Talakag", "lat": "8.2319", "long": "124.6025"}, {"title": "Palo", "lat": "11.1583", "long": "124.9917"}, {"title": "Infanta", "lat": "14.7425", "long": "121.6494"}, {"title": "Santa Rosa", "lat": "15.4239", "long": "120.9389"}, {"title": "Pilar", "lat": "12.9244", "long": "123.6756"}, {"title": "Pinamungahan", "lat": "10.2667", "long": "123.5833"}, {"title": "Libon", "lat": "13.3000", "long": "123.4333"}, {"title": "Bugallon", "lat": "15.9167", "long": "120.1833"}, {"title": "Pozorrubio", "lat": "16.1167", "long": "120.5500"}, {"title": "Dalaguete", "lat": "9.7612", "long": "123.5349"}, {"title": "Esperanza", "lat": "6.7167", "long": "124.5167"}, {"title": "Balingasag", "lat": "8.7500", "long": "124.7833"}, {"title": "Dumangas", "lat": "10.8333", "long": "122.7167"}, {"title": "Alicia", "lat": "16.7787", "long": "121.6972"}, {"title": "Brookes Point", "lat": "8.7833", "long": "117.8333"}, {"title": "Lala", "lat": "7.9667", "long": "123.7500"}, {"title": "Tupi", "lat": "6.3333", "long": "124.9500"}, {"title": "Bula", "lat": "13.4694", "long": "123.2775"}, {"title": "Jose Abad Santos", "lat": "5.9167", "long": "125.6500"}, {"title": "Carles", "lat": "11.5667", "long": "123.1333"}, {"title": "San Fernando", "lat": "10.1667", "long": "123.7000"}, {"title": "Bacacay", "lat": "13.2925", "long": "123.7917"}, {"title": "Morong", "lat": "14.5119", "long": "121.2389"}, {"title": "Catanauan", "lat": "13.5917", "long": "122.3250"}, {"title": "Sipalay", "lat": "9.7500", "long": "122.4000"}, {"title": "Camalig", "lat": "13.1333", "long": "123.6667"}, {"title": "Pililla", "lat": "14.4833", "long": "121.3000"}, {"title": "Pigcawayan", "lat": "7.2833", "long": "124.4333"}, {"title": "Gumaca", "lat": "13.9210", "long": "122.1002"}, {"title": "Calauag", "lat": "13.9575", "long": "122.2875"}, {"title": "Binalbagan", "lat": "10.2000", "long": "122.8667"}, {"title": "Talibon", "lat": "10.1167", "long": "124.2833"}, {"title": "Parang", "lat": "5.9167", "long": "120.9167"}, {"title": "Goa", "lat": "13.6983", "long": "123.4889"}, {"title": "Orani", "lat": "14.8000", "long": "120.5333"}, {"title": "Mauban", "lat": "14.1911", "long": "121.7308"}, {"title": "Aliaga", "lat": "15.5036", "long": "120.8450"}, {"title": "Tumauini", "lat": "17.2667", "long": "121.8000"}, {"title": "Rizal", "lat": "15.7100", "long": "121.1047"}, {"title": "Tinambac", "lat": "13.8183", "long": "123.3244"}, {"title": "San Pascual", "lat": "13.8000", "long": "121.0333"}, {"title": "Victoria", "lat": "15.5781", "long": "120.6819"}, {"title": "Roxas", "lat": "10.3197", "long": "119.3408"}, {"title": "Indang", "lat": "14.2000", "long": "120.8833"}, {"title": "Don Carlos", "lat": "7.6808", "long": "124.9953"}, {"title": "La Paz", "lat": "15.4431", "long": "120.7289"}, {"title": "Cawayan", "lat": "11.9303", "long": "123.7689"}, {"title": "Mamungan", "lat": "8.1167", "long": "124.2167"}, {"title": "Aparri", "lat": "18.3575", "long": "121.6372"}, {"title": "Bagumbayan", "lat": "6.5339", "long": "124.5633"}, {"title": "Buenavista", "lat": "8.9744", "long": "125.4090"}, {"title": "San Leonardo", "lat": "15.3611", "long": "120.9622"}, {"title": "Tangub", "lat": "8.0667", "long": "123.7500"}, {"title": "Bay", "lat": "14.1833", "long": "121.2833"}, {"title": "Alamada", "lat": "7.3868", "long": "124.5534"}, {"title": "Castillejos", "lat": "14.9333", "long": "120.2000"}, {"title": "Miagao", "lat": "10.6442", "long": "122.2352"}, {"title": "Tuburan", "lat": "10.7333", "long": "123.8333"}, {"title": "Sipocot", "lat": "13.7675", "long": "122.9783"}, {"title": "Cuyapo", "lat": "15.7778", "long": "120.6608"}, {"title": "Santa Barbara", "lat": "10.8231", "long": "122.5344"}, {"title": "Rosales", "lat": "15.8944", "long": "120.6328"}, {"title": "Agoo", "lat": "16.3220", "long": "120.3647"}, {"title": "San Mateo", "lat": "16.8833", "long": "121.5833"}, {"title": "Janiuay", "lat": "10.9500", "long": "122.5000"}, {"title": "La Carlota", "lat": "10.4167", "long": "122.9167"}, {"title": "Bongabon", "lat": "15.6321", "long": "121.1448"}, {"title": "Lupon", "lat": "6.8969", "long": "126.0117"}, {"title": "Botolan", "lat": "15.2896", "long": "120.0245"}, {"title": "Opol", "lat": "8.5167", "long": "124.5667"}, {"title": "Angat", "lat": "14.9281", "long": "121.0293"}, {"title": "San Remigio", "lat": "11.0000", "long": "123.9500"}, {"title": "Oas", "lat": "13.2589", "long": "123.4953"}, {"title": "Malvar", "lat": "14.0417", "long": "121.1583"}, {"title": "Roxas", "lat": "17.1167", "long": "121.6167"}, {"title": "Lantapan", "lat": "8.0000", "long": "125.0233"}, {"title": "Tigbauan", "lat": "10.6747", "long": "122.3776"}, {"title": "Kiamba", "lat": "5.9833", "long": "124.6167"}, {"title": "Coron", "lat": "12.0000", "long": "120.2000"}, {"title": "Villasis", "lat": "15.9000", "long": "120.5833"}, {"title": "Lutayan", "lat": "6.6000", "long": "124.8500"}, {"title": "Solano", "lat": "16.5183", "long": "121.1811"}, {"title": "Nagcarlan", "lat": "14.1364", "long": "121.4165"}, {"title": "Quezon", "lat": "9.2350", "long": "117.9967"}, {"title": "Maasin", "lat": "5.8667", "long": "125.0000"}, {"title": "Isabela", "lat": "10.2000", "long": "122.9833"}, {"title": "Saravia", "lat": "10.8833", "long": "122.9667"}, {"title": "Hilongos", "lat": "10.3667", "long": "124.7500"}, {"title": "Sibulan", "lat": "9.3500", "long": "123.2833"}, {"title": "Atimonan", "lat": "14.0036", "long": "121.9199"}, {"title": "Tuao", "lat": "17.7350", "long": "121.4553"}, {"title": "Sibalom", "lat": "10.7883", "long": "122.0175"}, {"title": "Santa Cruz", "lat": "15.7667", "long": "119.9167"}, {"title": "Jose Panganiban", "lat": "14.2922", "long": "122.6928"}, {"title": "Moncada", "lat": "15.7331", "long": "120.5725"}, {"title": "Bansalan", "lat": "6.7833", "long": "125.2167"}, {"title": "San Fernando", "lat": "7.9178", "long": "125.3286"}, {"title": "Calinog", "lat": "11.1333", "long": "122.5000"}, {"title": "Santa Ana", "lat": "15.0939", "long": "120.7681"}, {"title": "Kapatagan", "lat": "7.9000", "long": "123.7667"}, {"title": "Aurora", "lat": "13.3500", "long": "122.5167"}, {"title": "Cambanugoy", "lat": "7.5386", "long": "125.7508"}, {"title": "Baao", "lat": "13.4535", "long": "123.3654"}, {"title": "Candon", "lat": "17.1958", "long": "120.4489"}, {"title": "Santo Domingo", "lat": "15.5900", "long": "120.8786"}, {"title": "Orion", "lat": "14.6206", "long": "120.5817"}, {"title": "Cabatuan", "lat": "10.8833", "long": "122.4833"}, {"title": "Itogon", "lat": "16.3700", "long": "120.6700"}, {"title": "Tigaon", "lat": "13.6319", "long": "123.4975"}, {"title": "Abuyog", "lat": "10.7458", "long": "125.0122"}, {"title": "Tulunan", "lat": "6.8333", "long": "124.8833"}, {"title": "Obando", "lat": "14.7083", "long": "120.9375"}, {"title": "Rosario", "lat": "16.2333", "long": "120.4833"}, {"title": "Jinoba-an", "lat": "9.6018", "long": "122.4668"}, {"title": "Malay", "lat": "11.8997", "long": "121.9094"}, {"title": "Castilla", "lat": "12.9553", "long": "123.8764"}, {"title": "Laoang", "lat": "12.5667", "long": "125.0167"}, {"title": "Matanao", "lat": "6.7500", "long": "125.2333"}, {"title": "Gubat", "lat": "12.9189", "long": "124.1231"}, {"title": "Paracale", "lat": "14.2797", "long": "122.7869"}, {"title": "Medellin", "lat": "11.1286", "long": "123.9622"}, {"title": "Maimbung", "lat": "5.9333", "long": "121.0333"}, {"title": "San Simon", "lat": "14.9980", "long": "120.7800"}, {"title": "Alfonso", "lat": "14.1379", "long": "120.8552"}, {"title": "San Mariano", "lat": "16.9833", "long": "122.0167"}, {"title": "Kananya", "lat": "11.1856", "long": "124.5597"}, {"title": "Ilog", "lat": "10.0333", "long": "122.7667"}, {"title": "Sigaboy", "lat": "6.6536", "long": "126.0717"}, {"title": "Ragay", "lat": "13.8217", "long": "122.7897"}, {"title": "San Francisco", "lat": "10.6500", "long": "124.3500"}, {"title": "Irosin", "lat": "12.7050", "long": "124.0319"}, {"title": "San Luis", "lat": "15.0400", "long": "120.7919"}, {"title": "Roxas", "lat": "12.5833", "long": "121.5000"}, {"title": "Esperanza", "lat": "8.6760", "long": "125.6454"}, {"title": "Ibaan", "lat": "13.8176", "long": "121.1330"}, {"title": "El Salvador", "lat": "8.5667", "long": "124.5167"}, {"title": "Mansalay", "lat": "12.5204", "long": "121.4385"}, {"title": "Calatagan", "lat": "13.8322", "long": "120.6322"}, {"title": "Masantol", "lat": "14.9000", "long": "120.7167"}, {"title": "Canlaon", "lat": "10.3833", "long": "123.2000"}, {"title": "Upi", "lat": "7.0106", "long": "124.1629"}, {"title": "Gattaran", "lat": "18.0611", "long": "121.6453"}, {"title": "Barotac Nuevo", "lat": "10.9000", "long": "122.7000"}, {"title": "Baganga", "lat": "7.5752", "long": "126.5585"}, {"title": "Palompon", "lat": "11.0500", "long": "124.3833"}, {"title": "Asingan", "lat": "16.0023", "long": "120.6695"}, {"title": "Cogan", "lat": "10.5833", "long": "123.9667"}, {"title": "Dumanjog", "lat": "10.0500", "long": "123.4833"}, {"title": "Tanauan", "lat": "11.1167", "long": "125.0167"}, {"title": "New Corella", "lat": "7.5866", "long": "125.8237"}, {"title": "Santa Maria", "lat": "6.5500", "long": "125.4667"}, {"title": "Jasaan", "lat": "8.6500", "long": "124.7500"}, {"title": "Milagros", "lat": "12.2192", "long": "123.5089"}, {"title": "Binalonan", "lat": "16.0500", "long": "120.6000"}, {"title": "Alangalang", "lat": "11.2061", "long": "124.8478"}, {"title": "Uson", "lat": "12.2253", "long": "123.7834"}, {"title": "Buluan", "lat": "6.7154", "long": "124.7854"}, {"title": "Hagonoy", "lat": "6.6833", "long": "125.3000"}, {"title": "Lian", "lat": "14.0333", "long": "120.6500"}, {"title": "Tiwi", "lat": "13.4585", "long": "123.6805"}, {"title": "Ramon", "lat": "16.7833", "long": "121.5333"}, {"title": "Poblacion", "lat": "10.4667", "long": "123.9667"}, {"title": "Paombong", "lat": "14.8311", "long": "120.7892"}, {"title": "Lagonoy", "lat": "13.7353", "long": "123.5208"}, {"title": "Basey", "lat": "11.2817", "long": "125.0683"}, {"title": "Pangantocan", "lat": "7.8331", "long": "124.8294"}, {"title": "Placer", "lat": "11.8689", "long": "123.9167"}, {"title": "Libungan", "lat": "7.2500", "long": "124.5167"}, {"title": "Magsaysay", "lat": "6.7667", "long": "125.1833"}, {"title": "Pila", "lat": "14.2333", "long": "121.3667"}, {"title": "Diffun", "lat": "16.5936", "long": "121.5025"}, {"title": "Urbiztondo", "lat": "15.8227", "long": "120.3295"}, {"title": "General Tinio", "lat": "15.3500", "long": "121.0500"}, {"title": "Bambang", "lat": "16.3872", "long": "121.1075"}, {"title": "Batac", "lat": "18.0554", "long": "120.5649"}, {"title": "Mulanay", "lat": "13.5222", "long": "122.4042"}, {"title": "Asturias", "lat": "10.5679", "long": "123.7172"}, {"title": "Mercedes", "lat": "14.1093", "long": "123.0109"}, {"title": "Manapla", "lat": "10.9580", "long": "123.1230"}, {"title": "San Isidro", "lat": "15.3097", "long": "120.9069"}, {"title": "Carigara", "lat": "11.3000", "long": "124.6833"}, {"title": "Estancia", "lat": "11.4500", "long": "123.1500"}, {"title": "Pontevedra", "lat": "10.3667", "long": "122.8833"}, {"title": "Sara", "lat": "11.2500", "long": "123.0167"}, {"title": "Santa Cruz", "lat": "13.4833", "long": "122.0333"}, {"title": "Masinloc", "lat": "15.5333", "long": "119.9500"}, {"title": "San Manuel", "lat": "16.0656", "long": "120.6667"}, {"title": "Trento", "lat": "8.0459", "long": "126.0614"}, {"title": "Tapas", "lat": "11.2622", "long": "122.5369"}, {"title": "Minalabac", "lat": "13.5700", "long": "123.1844"}, {"title": "Titay", "lat": "7.8703", "long": "122.5594"}, {"title": "Tagkawayan", "lat": "13.9667", "long": "122.5333"}, {"title": "Cabagan", "lat": "17.4333", "long": "121.7667"}, {"title": "Impasugong", "lat": "8.3028", "long": "125.0014"}, {"title": "Magpet", "lat": "7.1167", "long": "125.1167"}, {"title": "Kitaotao", "lat": "7.6406", "long": "125.0086"}, {"title": "Zaragoza", "lat": "15.4492", "long": "120.7933"}, {"title": "Sibonga", "lat": "10.0333", "long": "123.5667"}, {"title": "Pasacao", "lat": "13.5103", "long": "123.0419"}, {"title": "Ajuy", "lat": "11.1725", "long": "123.0196"}, {"title": "Dauis", "lat": "9.6250", "long": "123.8650"}, {"title": "Guiuan", "lat": "11.0300", "long": "125.7300"}, {"title": "Lucban", "lat": "14.1133", "long": "121.5569"}, {"title": "Barobo", "lat": "8.5292", "long": "126.1217"}, {"title": "Molave", "lat": "8.0933", "long": "123.4850"}, {"title": "Buenavista", "lat": "10.7000", "long": "122.6333"}, {"title": "Aurora", "lat": "7.9484", "long": "123.5819"}, {"title": "Hamtic", "lat": "10.7000", "long": "121.9833"}, {"title": "Padre Garcia", "lat": "13.8833", "long": "121.2167"}, {"title": "Sison", "lat": "16.1667", "long": "120.5167"}, {"title": "Bani", "lat": "16.1869", "long": "119.8592"}, {"title": "San Joaquin", "lat": "10.6000", "long": "122.0833"}, {"title": "Burauen", "lat": "10.9833", "long": "124.9000"}, {"title": "Ibajay", "lat": "11.8211", "long": "122.1617"}, {"title": "Naguilian", "lat": "16.5333", "long": "120.4000"}, {"title": "Bato", "lat": "13.3578", "long": "123.3678"}, {"title": "President Roxas", "lat": "7.1544", "long": "125.0558"}, {"title": "Claveria", "lat": "8.6100", "long": "124.8947"}, {"title": "Victoria", "lat": "13.1719", "long": "121.2756"}, {"title": "Alaminos", "lat": "14.0635", "long": "121.2451"}, {"title": "Leon", "lat": "10.7808", "long": "122.3894"}, {"title": "Mabini", "lat": "13.7167", "long": "120.9000"}, {"title": "Santa Ignacia", "lat": "15.6167", "long": "120.4333"}, {"title": "Caramoan", "lat": "13.7707", "long": "123.8631"}, {"title": "Cardona", "lat": "14.4861", "long": "121.2289"}, {"title": "Bantacan", "lat": "7.5483", "long": "126.1381"}, {"title": "Ocampo", "lat": "13.5594", "long": "123.3761"}, {"title": "San Narciso", "lat": "13.5677", "long": "122.5667"}, {"title": "Aringay", "lat": "16.3982", "long": "120.3555"}, {"title": "Kalamansig", "lat": "6.5667", "long": "124.0500"}, {"title": "Cataingan", "lat": "12.0028", "long": "123.9944"}, {"title": "Gloria", "lat": "12.9722", "long": "121.4778"}, {"title": "Donsol", "lat": "12.9083", "long": "123.5981"}, {"title": "El Nido", "lat": "11.1956", "long": "119.4075"}, {"title": "Amulung", "lat": "17.8387", "long": "121.7235"}, {"title": "Wao", "lat": "7.6404", "long": "124.7257"}, {"title": "Penablanca", "lat": "17.6258", "long": "121.7853"}, {"title": "Pananaw", "lat": "5.9833", "long": "121.2500"}, {"title": "Pontevedra", "lat": "11.4833", "long": "122.8333"}, {"title": "Alcala", "lat": "15.8468", "long": "120.5218"}, {"title": "Santa Rita", "lat": "14.9953", "long": "120.6153"}, {"title": "Rosario", "lat": "8.3814", "long": "126.0015"}, {"title": "Dumarao", "lat": "11.2631", "long": "122.6878"}, {"title": "Odiongan", "lat": "12.4000", "long": "122.0000"}, {"title": "Kiblawan", "lat": "6.6167", "long": "125.2167"}, {"title": "Pio Duran", "lat": "13.0333", "long": "123.4500"}, {"title": "Dulag", "lat": "10.9525", "long": "125.0317"}, {"title": "Carmen", "lat": "9.8167", "long": "124.2000"}, {"title": "Vinzons", "lat": "14.1739", "long": "122.9081"}, {"title": "Minalin", "lat": "14.9667", "long": "120.6833"}, {"title": "Malabang", "lat": "7.5903", "long": "124.0703"}, {"title": "Panay", "lat": "11.5553", "long": "122.7931"}, {"title": "Libona", "lat": "8.3333", "long": "124.7433"}, {"title": "Dumingag", "lat": "8.1550", "long": "123.3450"}, {"title": "Inabanga", "lat": "10.0333", "long": "124.0667"}, {"title": "Barotac Viejo", "lat": "11.0500", "long": "122.8500"}, {"title": "Lal-lo", "lat": "18.2000", "long": "121.6622"}, {"title": "Bacolor", "lat": "14.9984", "long": "120.6526"}, {"title": "New Washington", "lat": "11.6483", "long": "122.4339"}, {"title": "Siocon", "lat": "7.7067", "long": "122.1361"}, {"title": "Mahayag", "lat": "8.1297", "long": "123.4383"}, {"title": "Tuba", "lat": "16.3928", "long": "120.5603"}, {"title": "Tibigan", "lat": "9.9500", "long": "123.9667"}, {"title": "Balimbing", "lat": "5.0728", "long": "119.8847"}, {"title": "Talisay", "lat": "14.1000", "long": "121.0167"}, {"title": "Malinao", "lat": "13.4000", "long": "123.7000"}, {"title": "Sogod", "lat": "10.3833", "long": "124.9833"}, {"title": "Pilar", "lat": "11.4878", "long": "122.9956"}, {"title": "Bunawan", "lat": "8.1781", "long": "125.9935"}, {"title": "Isabel", "lat": "10.9300", "long": "124.4300"}, {"title": "Pilar", "lat": "14.6667", "long": "120.5667"}, {"title": "Sumisip", "lat": "6.4167", "long": "121.9833"}, {"title": "Albuera", "lat": "10.9186", "long": "124.6923"}, {"title": "Ayungon", "lat": "9.8584", "long": "123.1468"}, {"title": "Banisilan", "lat": "7.5000", "long": "124.7000"}, {"title": "Norala", "lat": "6.5500", "long": "124.6667"}, {"title": "Kabasalan", "lat": "7.7968", "long": "122.7627"}, {"title": "Tuy", "lat": "14.0167", "long": "120.7333"}, {"title": "Cordon", "lat": "16.6667", "long": "121.4500"}, {"title": "Montevista", "lat": "7.7053", "long": "125.9903"}, {"title": "Narvacan", "lat": "17.4192", "long": "120.4756"}, {"title": "Lower Tungawan", "lat": "7.6047", "long": "122.4228"}, {"title": "Dingle", "lat": "11.0500", "long": "122.6667"}, {"title": "Pagalungan", "lat": "7.0592", "long": "124.6987"}, {"title": "Lupao", "lat": "15.8794", "long": "120.8994"}, {"title": "Tayug", "lat": "16.0267", "long": "120.7478"}, {"title": "Pagsanjan", "lat": "14.2667", "long": "121.4500"}, {"title": "Maluso", "lat": "6.5500", "long": "121.8833"}, {"title": "Lumba-a-Bayabao", "lat": "7.8833", "long": "124.3833"}, {"title": "Tantangan", "lat": "6.6167", "long": "124.7500"}, {"title": "Jones", "lat": "16.5583", "long": "121.7000"}, {"title": "Talagutong", "lat": "6.2667", "long": "125.6667"}, {"title": "San Jacinto", "lat": "16.0725", "long": "120.4411"}, {"title": "Victoria", "lat": "14.2250", "long": "121.3250"}, {"title": "Aguilar", "lat": "15.8899", "long": "120.2379"}, {"title": "Basud", "lat": "14.0667", "long": "122.9667"}, {"title": "Angadanan", "lat": "16.7571", "long": "121.7479"}, {"title": "Concepcion", "lat": "11.2000", "long": "123.1000"}, {"title": "Buguias", "lat": "16.8033", "long": "120.8211"}, {"title": "Maria Aurora", "lat": "15.7967", "long": "121.4737"}, {"title": "San Jose", "lat": "13.6981", "long": "123.5186"}, {"title": "Manjuyod", "lat": "9.6833", "long": "123.1500"}, {"title": "Bacnotan", "lat": "16.7197", "long": "120.3481"}, {"title": "Nasipit", "lat": "8.9884", "long": "125.3408"}, {"title": "Katipunan", "lat": "8.5134", "long": "123.2847"}, {"title": "Dolores", "lat": "12.0378", "long": "125.4828"}, {"title": "Culasi", "lat": "11.4272", "long": "122.0560"}, {"title": "San Pascual", "lat": "13.1286", "long": "122.9775"}, {"title": "Loon", "lat": "9.8000", "long": "123.8000"}, {"title": "Banaybanay", "lat": "6.9664", "long": "126.0114"}, {"title": "Labangan", "lat": "7.8667", "long": "123.5167"}, {"title": "Bulalacao", "lat": "12.3333", "long": "121.3500"}, {"title": "General Mamerto Natividad", "lat": "15.6030", "long": "121.0510"}, {"title": "Maitum", "lat": "6.0333", "long": "124.4833"}, {"title": "Cateel", "lat": "7.7900", "long": "126.4531"}, {"title": "Mandaon", "lat": "12.2259", "long": "123.2842"}, {"title": "Guinayangan", "lat": "13.9000", "long": "122.4500"}, {"title": "Labason", "lat": "8.0647", "long": "122.5200"}, {"title": "Badian", "lat": "9.8694", "long": "123.3959"}, {"title": "Hinatuan", "lat": "8.3661", "long": "126.3361"}, {"title": "Jaro", "lat": "11.1894", "long": "124.7853"}, {"title": "Loreto", "lat": "8.1856", "long": "125.8538"}, {"title": "Kalilangan", "lat": "7.7464", "long": "124.7475"}, {"title": "Laurel", "lat": "14.0500", "long": "120.9000"}, {"title": "Toboso", "lat": "10.7167", "long": "123.5167"}, {"title": "Santa Elena", "lat": "14.1797", "long": "122.3919"}, {"title": "Madridejos", "lat": "11.2667", "long": "123.7333"}, {"title": "Moises Padilla", "lat": "10.2667", "long": "123.0833"}, {"title": "Roseller Lim", "lat": "7.6583", "long": "122.4639"}, {"title": "Guambog", "lat": "7.3092", "long": "125.8556"}, {"title": "Abucay", "lat": "14.7222", "long": "120.5354"}, {"title": "South Upi", "lat": "6.8548", "long": "124.1443"}, {"title": "Villaba", "lat": "11.2167", "long": "124.4000"}, {"title": "Santo Tomas", "lat": "15.0000", "long": "120.7500"}, {"title": "Nueva Valencia", "lat": "10.5259", "long": "122.5398"}, {"title": "Panitan", "lat": "11.4639", "long": "122.7694"}, {"title": "Amadeo", "lat": "14.1728", "long": "120.9277"}, {"title": "Proper Bansud", "lat": "12.8594", "long": "121.4567"}, {"title": "Tucuran", "lat": "7.8547", "long": "123.5783"}, {"title": "Llanera", "lat": "15.6625", "long": "121.0197"}, {"title": "Balabac", "lat": "7.9833", "long": "117.0500"}, {"title": "Liloy", "lat": "8.1228", "long": "122.6736"}, {"title": "Santa Rita", "lat": "11.4522", "long": "124.9408"}, {"title": "Carranglan", "lat": "15.9608", "long": "121.0631"}, {"title": "Santa Cruz", "lat": "13.0831", "long": "120.7192"}, {"title": "Polanco", "lat": "8.5319", "long": "123.3631"}, {"title": "Quezon", "lat": "15.5542", "long": "120.8111"}, {"title": "President Quirino", "lat": "6.7000", "long": "124.7333"}, {"title": "Claveria", "lat": "12.9035", "long": "123.2457"}, {"title": "Aritao", "lat": "16.2973", "long": "121.0338"}, {"title": "Matnog", "lat": "12.5856", "long": "124.0856"}, {"title": "Bacong", "lat": "9.2464", "long": "123.2948"}, {"title": "Puerto Galera", "lat": "13.5000", "long": "120.9542"}, {"title": "Anda", "lat": "16.2896", "long": "119.9491"}, {"title": "Kibawe", "lat": "7.5678", "long": "124.9903"}, {"title": "Naga", "lat": "7.7978", "long": "122.6944"}, {"title": "Kasibu", "lat": "16.3181", "long": "121.2958"}, {"title": "Daram", "lat": "11.6341", "long": "124.7947"}, {"title": "San Miguel", "lat": "8.9322", "long": "126.0403"}, {"title": "Socorro", "lat": "13.0583", "long": "121.4117"}, {"title": "Tabogon", "lat": "10.9333", "long": "124.0333"}, {"title": "Santa Cruz", "lat": "17.0853", "long": "120.4553"}, {"title": "Tagudin", "lat": "16.9361", "long": "120.4464"}, {"title": "Malilipot", "lat": "13.3167", "long": "123.7333"}, {"title": "Gonzaga", "lat": "18.2614", "long": "121.9969"}, {"title": "Mondragon", "lat": "12.5167", "long": "124.7500"}, {"title": "Maayon", "lat": "11.3903", "long": "122.7828"}, {"title": "Alcala", "lat": "17.9031", "long": "121.6556"}, {"title": "Santo Tomas", "lat": "16.2833", "long": "120.3833"}, {"title": "Lasam", "lat": "18.0667", "long": "121.6000"}, {"title": "La Libertad", "lat": "10.0333", "long": "123.2167"}, {"title": "San Jose de Urquico", "lat": "15.4781", "long": "120.4639"}, {"title": "Villanueva", "lat": "8.5833", "long": "124.7833"}, {"title": "San Juan", "lat": "16.6667", "long": "120.3333"}, {"title": "Vallehermoso", "lat": "10.3333", "long": "123.3167"}, {"title": "Tagbina", "lat": "8.4578", "long": "126.1578"}, {"title": "Tampakan", "lat": "6.4500", "long": "124.9333"}, {"title": "Mobo", "lat": "12.3372", "long": "123.6581"}, {"title": "Nabas", "lat": "11.8278", "long": "122.0939"}, {"title": "Maddela", "lat": "16.3411", "long": "121.6833"}, {"title": "Mambusao", "lat": "11.4300", "long": "122.5953"}, {"title": "Lobo", "lat": "13.6500", "long": "121.2500"}, {"title": "Maragondon", "lat": "14.2667", "long": "120.7333"}, {"title": "Balaoan", "lat": "16.8167", "long": "120.4000"}, {"title": "Valladolid", "lat": "10.4667", "long": "122.8333"}, {"title": "Banga", "lat": "11.6389", "long": "122.3331"}, {"title": "Siay", "lat": "7.7056", "long": "122.8641"}, {"title": "Leyte", "lat": "11.3667", "long": "124.4833"}, {"title": "Panglao", "lat": "9.5833", "long": "123.7500"}, {"title": "Rizal", "lat": "12.4667", "long": "120.9667"}, {"title": "Taysan", "lat": "13.7833", "long": "121.2000"}, {"title": "Cabatuan", "lat": "16.9589", "long": "121.6692"}, {"title": "Dingras", "lat": "18.1036", "long": "120.6975"}, {"title": "Payabon", "lat": "9.7667", "long": "123.1333"}, {"title": "Lilio", "lat": "14.1300", "long": "121.4360"}, {"title": "Malalag", "lat": "6.6000", "long": "125.4000"}, {"title": "Plaridel", "lat": "8.6214", "long": "123.7101"}, {"title": "Balud", "lat": "12.0369", "long": "123.1935"}, {"title": "Santo Nino", "lat": "6.4333", "long": "124.6833"}, {"title": "Siniloan", "lat": "14.4167", "long": "121.4500"}, {"title": "Pamplona", "lat": "9.4667", "long": "123.1167"}, {"title": "Baco", "lat": "13.3584", "long": "121.0977"}, {"title": "Alimodian", "lat": "10.8196", "long": "122.4322"}, {"title": "Tago", "lat": "9.0192", "long": "126.2333"}, {"title": "San Nicolas", "lat": "16.0700", "long": "120.7653"}, {"title": "Poblacion", "lat": "7.5086", "long": "125.9206"}, {"title": "Palauig", "lat": "15.4336", "long": "119.9083"}, {"title": "Magsaysay", "lat": "12.3117", "long": "121.1472"}, {"title": "Agoncillo", "lat": "13.9334", "long": "120.9285"}, {"title": "San Nicolas", "lat": "18.1750", "long": "120.5950"}, {"title": "Clarin", "lat": "8.2000", "long": "123.8500"}, {"title": "Pamplona", "lat": "13.5925", "long": "123.0833"}, {"title": "Veruela", "lat": "8.0698", "long": "125.9554"}, {"title": "Kalingalan Caluang", "lat": "5.8833", "long": "121.2667"}, {"title": "Buldon", "lat": "7.5167", "long": "124.3667"}, {"title": "Sogod", "lat": "10.7500", "long": "124.0000"}, {"title": "Talacogon", "lat": "8.4488", "long": "125.7869"}, {"title": "Caraga", "lat": "7.3283", "long": "126.5658"}, {"title": "Alicia", "lat": "7.5060", "long": "122.9412"}, {"title": "Manay", "lat": "7.2108", "long": "126.5328"}, {"title": "Damulog", "lat": "7.4853", "long": "124.9411"}, {"title": "Sual", "lat": "16.0661", "long": "120.0958"}, {"title": "San Dionisio", "lat": "11.2711", "long": "123.0948"}, {"title": "Mapandan", "lat": "16.0260", "long": "120.4540"}, {"title": "Cabugao", "lat": "17.7947", "long": "120.4556"}, {"title": "Basista", "lat": "15.8524", "long": "120.3976"}, {"title": "Caluya", "lat": "11.9320", "long": "121.5480"}, {"title": "San Fernando", "lat": "13.5661", "long": "123.1422"}, {"title": "Gabaldon", "lat": "15.4506", "long": "121.3378"}, {"title": "Bangar", "lat": "16.9000", "long": "120.4167"}, {"title": "Margosatubig", "lat": "7.5783", "long": "123.1659"}, {"title": "Valencia", "lat": "9.2833", "long": "123.2500"}, {"title": "Samal", "lat": "14.7678", "long": "120.5431"}, {"title": "Aborlan", "lat": "9.4386", "long": "118.5481"}, {"title": "Olutanga", "lat": "7.3106", "long": "122.8464"}, {"title": "Jamindan", "lat": "11.4094", "long": "122.5103"}, {"title": "Maasin", "lat": "10.8833", "long": "122.4333"}, {"title": "Real", "lat": "14.6667", "long": "121.6000"}, {"title": "Buug", "lat": "7.7286", "long": "123.0608"}, {"title": "San Andres", "lat": "13.5961", "long": "124.0992"}, {"title": "Patnongon", "lat": "10.9142", "long": "121.9947"}, {"title": "Borbon", "lat": "10.8333", "long": "124.0000"}, {"title": "Santo Domingo", "lat": "13.2350", "long": "123.7769"}, {"title": "Tayasan", "lat": "9.9167", "long": "123.1500"}, {"title": "Laur", "lat": "15.5797", "long": "121.1864"}, {"title": "Bagabag", "lat": "16.6044", "long": "121.2521"}, {"title": "Luna", "lat": "16.8500", "long": "120.3833"}, {"title": "San Andres", "lat": "13.3231", "long": "122.6761"}, {"title": "Luuk", "lat": "5.9676", "long": "121.3133"}, {"title": "Mabuhay", "lat": "7.4176", "long": "122.8370"}, {"title": "Marantao", "lat": "7.9500", "long": "124.2330"}, {"title": "San Marcelino", "lat": "14.9742", "long": "120.1573"}, {"title": "Tambulig", "lat": "8.0700", "long": "123.5372"}, {"title": "Magallanes", "lat": "12.8283", "long": "123.8344"}, {"title": "Oras", "lat": "12.1414", "long": "125.4392"}, {"title": "San Antonio", "lat": "14.9486", "long": "120.0864"}, {"title": "Bantay", "lat": "17.5839", "long": "120.3908"}, {"title": "Mankayan", "lat": "16.8567", "long": "120.7933"}, {"title": "Sitangkai", "lat": "4.6615", "long": "119.3919"}, {"title": "Basilisa", "lat": "10.0654", "long": "125.5968"}, {"title": "San Enrique", "lat": "11.0697", "long": "122.6567"}, {"title": "Moalboal", "lat": "9.9500", "long": "123.4000"}, {"title": "Imbatug", "lat": "8.3128", "long": "124.6873"}, {"title": "Languyan", "lat": "5.2667", "long": "120.0833"}, {"title": "Sagnay", "lat": "13.6039", "long": "123.5233"}, {"title": "Magsaysay", "lat": "9.0167", "long": "125.1833"}, {"title": "Canaman", "lat": "13.6481", "long": "123.1711"}, {"title": "Manucan", "lat": "8.5161", "long": "123.0917"}, {"title": "San Luis", "lat": "13.8333", "long": "120.9333"}, {"title": "Aurora", "lat": "16.9918", "long": "121.6357"}, {"title": "Numancia", "lat": "11.7042", "long": "122.3289"}, {"title": "Enrile", "lat": "17.5622", "long": "121.7011"}, {"title": "Cuenca", "lat": "13.9167", "long": "121.0500"}, {"title": "Las Navas", "lat": "12.3400", "long": "125.0320"}, {"title": "Dinas", "lat": "7.6161", "long": "123.3378"}, {"title": "Gasan", "lat": "13.3167", "long": "121.8500"}, {"title": "Simbahan", "lat": "6.3000", "long": "120.5833"}, {"title": "Cabanglasan", "lat": "8.0772", "long": "125.2992"}, {"title": "Dagami", "lat": "11.0611", "long": "124.9031"}, {"title": "Rapu-Rapu", "lat": "13.1833", "long": "124.1333"}, {"title": "Capalonga", "lat": "14.3314", "long": "122.4928"}, {"title": "Siayan", "lat": "8.2517", "long": "123.1144"}, {"title": "Pandan", "lat": "11.7206", "long": "122.0961"}, {"title": "Barira", "lat": "7.4706", "long": "124.3561"}, {"title": "Gutalac", "lat": "7.9833", "long": "122.4000"}, {"title": "Bautista", "lat": "15.8103", "long": "120.4756"}, {"title": "Claveria", "lat": "9.5742", "long": "125.7328"}, {"title": "San Antonio", "lat": "13.9000", "long": "121.3000"}, {"title": "Sibuco", "lat": "7.2928", "long": "122.0669"}, {"title": "Matanog", "lat": "7.4667", "long": "124.2500"}, {"title": "Jagna", "lat": "9.6500", "long": "124.3667"}, {"title": "Casiguran", "lat": "12.8731", "long": "124.0081"}, {"title": "Medina", "lat": "8.9167", "long": "125.0167"}, {"title": "Guimbal", "lat": "10.6667", "long": "122.3167"}, {"title": "Leganes", "lat": "10.7833", "long": "122.5833"}, {"title": "Santa Ana", "lat": "18.4589", "long": "122.1419"}, {"title": "Pambujan", "lat": "12.5667", "long": "124.9333"}, {"title": "Balasan", "lat": "11.4728", "long": "123.0878"}, {"title": "Santa Fe", "lat": "11.1500", "long": "123.8000"}, {"title": "Mendez-Nunez", "lat": "14.1286", "long": "120.9058"}, {"title": "Pola", "lat": "13.1439", "long": "121.4400"}, {"title": "Juban", "lat": "12.8478", "long": "123.9894"}, {"title": "Morong", "lat": "14.6800", "long": "120.2683"}, {"title": "Sulop", "lat": "6.5986", "long": "125.3436"}, {"title": "Allacapan", "lat": "18.2270", "long": "121.5556"}, {"title": "Gandara", "lat": "12.0130", "long": "124.8118"}, {"title": "Trinidad", "lat": "10.0795", "long": "124.3432"}, {"title": "Lingig", "lat": "8.0381", "long": "126.4127"}, {"title": "Abra de Ilog", "lat": "13.4448", "long": "120.7260"}, {"title": "San Luis", "lat": "8.4964", "long": "125.7364"}, {"title": "Munai", "lat": "7.9758", "long": "124.0636"}, {"title": "Payao", "lat": "7.5857", "long": "122.8022"}, {"title": "Aloguinsan", "lat": "10.2229", "long": "123.5491"}, {"title": "Duenas", "lat": "11.0667", "long": "122.6167"}, {"title": "Milaor", "lat": "13.5956", "long": "123.1781"}, {"title": "Laoac East", "lat": "16.0333", "long": "120.5500"}, {"title": "Barugo", "lat": "11.3167", "long": "124.7333"}, {"title": "Bugasong", "lat": "11.0447", "long": "122.0647"}, {"title": "Mogpog", "lat": "13.4833", "long": "121.8667"}, {"title": "Santa Maria", "lat": "14.4750", "long": "121.4250"}, {"title": "Abulug", "lat": "18.4441", "long": "121.4576"}, {"title": "Jalajala", "lat": "14.3557", "long": "121.3233"}, {"title": "Bonifacio", "lat": "8.0527", "long": "123.6136"}, {"title": "Ballesteros", "lat": "18.4108", "long": "121.5169"}, {"title": "Santa Maria", "lat": "15.9808", "long": "120.7003"}, {"title": "Bayog", "lat": "7.8474", "long": "123.0423"}, {"title": "New Panamao", "lat": "5.9667", "long": "121.2000"}, {"title": "Simunul", "lat": "4.8980", "long": "119.8213"}, {"title": "Talayan", "lat": "6.9844", "long": "124.3564"}, {"title": "San Manuel", "lat": "17.0167", "long": "121.6333"}, {"title": "Tandubas", "lat": "5.1340", "long": "120.3461"}, {"title": "Sibutu", "lat": "4.8500", "long": "119.4667"}, {"title": "Pinukpuk", "lat": "17.5731", "long": "121.3653"}, {"title": "Guindulman", "lat": "9.7620", "long": "124.4880"}, {"title": "San Quintin", "lat": "15.9844", "long": "120.8150"}, {"title": "General Nakar", "lat": "14.7631", "long": "121.6350"}, {"title": "Dao", "lat": "11.3800", "long": "122.6300"}, {"title": "Palapag", "lat": "12.5470", "long": "125.1160"}, {"title": "Tabango", "lat": "11.3067", "long": "124.3714"}, {"title": "Initao", "lat": "8.5000", "long": "124.3167"}, {"title": "Cantilan", "lat": "9.3356", "long": "125.9769"}, {"title": "San Remigio", "lat": "10.8331", "long": "122.0875"}, {"title": "Tobias Fornier", "lat": "10.5178", "long": "121.9450"}, {"title": "Lianga", "lat": "8.6330", "long": "126.0932"}, {"title": "Lupi Viejo", "lat": "13.7908", "long": "122.9092"}, {"title": "Catmon", "lat": "10.6667", "long": "123.9500"}, {"title": "Sibagat", "lat": "8.8219", "long": "125.6938"}, {"title": "Bacarra", "lat": "18.2519", "long": "120.6107"}, {"title": "Naguilian", "lat": "17.0167", "long": "121.8500"}, {"title": "Datu Paglas", "lat": "6.7669", "long": "124.8500"}, {"title": "Kadingilan", "lat": "7.6003", "long": "124.9097"}, {"title": "Batan", "lat": "11.5853", "long": "122.4981"}, {"title": "Capoocan", "lat": "11.2944", "long": "124.6419"}, {"title": "Batobato", "lat": "6.8361", "long": "126.0889"}, {"title": "Masiu", "lat": "7.8167", "long": "124.3167"}, {"title": "Midsalip", "lat": "8.0328", "long": "123.3147"}, {"title": "Sapa Sapa", "lat": "5.0899", "long": "120.2729"}, {"title": "Banate", "lat": "11.0500", "long": "122.7833"}, {"title": "Getafe", "lat": "10.1500", "long": "124.1500"}, {"title": "Columbio", "lat": "6.7000", "long": "124.9333"}, {"title": "San Vicente", "lat": "10.5281", "long": "119.2542"}, {"title": "Calape", "lat": "9.8833", "long": "123.8833"}, {"title": "Vintar", "lat": "18.2306", "long": "120.6489"}, {"title": "Dupax Del Norte", "lat": "16.3075", "long": "121.1019"}, {"title": "Pandami", "lat": "5.5333", "long": "120.7500"}, {"title": "Dipaculao", "lat": "15.9833", "long": "121.6333"}, {"title": "Dumalinao", "lat": "7.8167", "long": "123.3667"}, {"title": "Lumbang", "lat": "14.2970", "long": "121.4590"}, {"title": "Dolores", "lat": "14.0157", "long": "121.4011"}, {"title": "Badoc", "lat": "17.9267", "long": "120.4754"}, {"title": "Matalom", "lat": "10.2833", "long": "124.8000"}, {"title": "Diplahan", "lat": "7.6911", "long": "122.9853"}, {"title": "Mayantoc", "lat": "15.6203", "long": "120.3775"}, {"title": "Balindong", "lat": "7.9167", "long": "124.2000"}, {"title": "Penaranda", "lat": "15.3531", "long": "121.0017"}, {"title": "Alubijid", "lat": "8.5714", "long": "124.4751"}, {"title": "Jimalalud", "lat": "9.9797", "long": "123.1999"}, {"title": "Mallig", "lat": "17.2086", "long": "121.6106"}, {"title": "Igbaras", "lat": "10.7167", "long": "122.2667"}, {"title": "Balimbing", "lat": "7.9000", "long": "123.8500"}, {"title": "Tubao", "lat": "16.3500", "long": "120.4167"}, {"title": "Buguey", "lat": "18.2882", "long": "121.8331"}, {"title": "Catubig", "lat": "12.4000", "long": "125.0500"}, {"title": "Salug", "lat": "8.1075", "long": "122.7575"}, {"title": "Tamparan", "lat": "7.8790", "long": "124.3330"}, {"title": "Caramoran", "lat": "13.9833", "long": "124.1333"}, {"title": "Bauko", "lat": "16.9917", "long": "120.8644"}, {"title": "Malangas", "lat": "7.6317", "long": "123.0322"}, {"title": "Claveria", "lat": "18.6061", "long": "121.0822"}, {"title": "Polillo", "lat": "14.7167", "long": "121.9500"}, {"title": "Mataas Na Kahoy", "lat": "13.9667", "long": "121.0833"}, {"title": "Sigma", "lat": "11.4214", "long": "122.6662"}, {"title": "Sergio Osmena Sr", "lat": "8.3003", "long": "123.5083"}, {"title": "Calubian", "lat": "11.4467", "long": "124.4278"}, {"title": "Merida", "lat": "10.9098", "long": "124.5376"}, {"title": "Ivisan", "lat": "11.5217", "long": "122.6908"}, {"title": "Pantabangan", "lat": "15.8086", "long": "121.1433"}, {"title": "Magsingal", "lat": "17.6850", "long": "120.4244"}, {"title": "Lemery", "lat": "11.2333", "long": "122.9333"}, {"title": "President Roxas", "lat": "11.4297", "long": "122.9247"}, {"title": "Dimataling", "lat": "7.5297", "long": "123.3661"}, {"title": "Dasol", "lat": "15.9896", "long": "119.8805"}, {"title": "Bagac", "lat": "14.5951", "long": "120.3918"}, {"title": "Pulupandan", "lat": "10.5167", "long": "122.8000"}, {"title": "Buenavista", "lat": "13.7394", "long": "122.4675"}, {"title": "Siraway", "lat": "7.5853", "long": "122.1406"}, {"title": "Gata", "lat": "7.8500", "long": "124.3500"}, {"title": "Paracelis", "lat": "17.1811", "long": "121.4036"}, {"title": "San Narciso", "lat": "15.0167", "long": "120.0833"}, {"title": "Tairan Camp", "lat": "6.6500", "long": "121.8667"}, {"title": "San Miguel", "lat": "10.7833", "long": "122.4667"}, {"title": "Balatan", "lat": "13.3167", "long": "123.2333"}, {"title": "La Paz", "lat": "8.2801", "long": "125.8092"}, {"title": "San Isidro", "lat": "11.4167", "long": "124.3500"}, {"title": "Ganassi", "lat": "7.8269", "long": "124.1034"}, {"title": "Aglipay", "lat": "16.4889", "long": "121.5874"}, {"title": "Gamu", "lat": "17.0500", "long": "121.8333"}, {"title": "Anilao", "lat": "10.9785", "long": "122.7531"}, {"title": "Torrijos", "lat": "13.3167", "long": "122.0833"}, {"title": "Pantao-Ragat", "lat": "8.0500", "long": "124.1500"}, {"title": "Santa Maria", "lat": "17.3719", "long": "120.4814"}, {"title": "Maguing", "lat": "7.9000", "long": "124.4000"}, {"title": "Balungao", "lat": "15.9000", "long": "120.7000"}, {"title": "Candijay", "lat": "9.8180", "long": "124.4960"}, {"title": "Dumalag", "lat": "11.3039", "long": "122.6214"}, {"title": "Candelaria", "lat": "15.6333", "long": "119.9333"}, {"title": "Balete", "lat": "11.5553", "long": "122.3792"}, {"title": "Iguig", "lat": "17.7517", "long": "121.7364"}, {"title": "Salay", "lat": "8.8667", "long": "124.8000"}, {"title": "Las Nieves", "lat": "8.7351", "long": "125.6010"}, {"title": "Dauin", "lat": "9.2000", "long": "123.2667"}, {"title": "Calintaan", "lat": "12.5756", "long": "120.9428"}, {"title": "Padada", "lat": "6.6333", "long": "125.3500"}, {"title": "Piagapo", "lat": "8.0000", "long": "124.2000"}, {"title": "Marogong", "lat": "7.6667", "long": "124.1500"}, {"title": "Makato", "lat": "11.7120", "long": "122.2922"}, {"title": "Agno", "lat": "16.1161", "long": "119.8027"}, {"title": "Placer", "lat": "9.6570", "long": "125.6016"}, {"title": "Bontoc", "lat": "10.3500", "long": "124.9667"}, {"title": "Ragan Sur", "lat": "17.3167", "long": "121.7833"}, {"title": "San Roque", "lat": "12.5330", "long": "124.8670"}, {"title": "Buenavista", "lat": "10.0833", "long": "124.1167"}, {"title": "Balabagan", "lat": "7.5333", "long": "124.1167"}, {"title": "San Jacinto", "lat": "12.5683", "long": "123.7336"}, {"title": "Zamboanguita", "lat": "9.1000", "long": "123.1990"}, {"title": "Benito Soliven", "lat": "16.9833", "long": "121.9500"}, {"title": "San Luis", "lat": "15.7167", "long": "121.5167"}, {"title": "Pasuquin", "lat": "18.3342", "long": "120.6183"}, {"title": "Manticao", "lat": "8.4042", "long": "124.2867"}, {"title": "Licab", "lat": "15.5400", "long": "120.7619"}, {"title": "South Ubian", "lat": "5.1833", "long": "120.4833"}, {"title": "Sumilao", "lat": "8.3281", "long": "124.9783"}, {"title": "Kumalarang", "lat": "7.7478", "long": "123.1442"}, {"title": "Lavezares", "lat": "12.5333", "long": "124.3333"}, {"title": "Santo Domingo", "lat": "17.6414", "long": "120.4108"}, {"title": "Garchitorena", "lat": "13.8833", "long": "123.7000"}, {"title": "Oslob", "lat": "9.5500", "long": "123.4000"}, {"title": "Sexmoan", "lat": "14.9333", "long": "120.6167"}, {"title": "Dapa", "lat": "9.7578", "long": "126.0528"}, {"title": "Hinunangan", "lat": "10.4000", "long": "125.2000"}, {"title": "Poona-Piagapo", "lat": "8.0833", "long": "124.0833"}, {"title": "Jimenez", "lat": "8.3333", "long": "123.8333"}, {"title": "Lugus", "lat": "5.7000", "long": "120.8167"}, {"title": "Tabuelan", "lat": "10.8500", "long": "123.9000"}, {"title": "Ponot", "lat": "8.4428", "long": "123.0219"}, {"title": "Babatngon", "lat": "11.4207", "long": "124.8434"}, {"title": "San Manuel", "lat": "15.7975", "long": "120.6072"}, {"title": "Ampatuan", "lat": "6.8348", "long": "124.4581"}, {"title": "Baleno", "lat": "12.4739", "long": "123.4982"}, {"title": "Mabini", "lat": "9.8650", "long": "124.5230"}, {"title": "Pilar", "lat": "9.8333", "long": "124.3333"}, {"title": "Tudela", "lat": "8.2472", "long": "123.8424"}, {"title": "Tibiao", "lat": "11.2892", "long": "122.0342"}, {"title": "Santiago", "lat": "9.2654", "long": "125.5602"}, {"title": "Basay", "lat": "9.4167", "long": "122.6333"}, {"title": "Saint Bernard", "lat": "10.2833", "long": "125.1333"}, {"title": "Dona Remedios Trinidad", "lat": "15.0000", "long": "121.0833"}, {"title": "Valencia", "lat": "9.6097", "long": "124.2080"}, {"title": "Magdalena", "lat": "14.2000", "long": "121.4333"}, {"title": "Santo Nino", "lat": "17.8861", "long": "121.5691"}, {"title": "Kolambugan", "lat": "8.1144", "long": "123.8971"}, {"title": "Datu Piang", "lat": "7.0178", "long": "124.4974"}, {"title": "Reina Mercedes Viejo", "lat": "16.9872", "long": "121.8272"}, {"title": "Libacao", "lat": "11.4833", "long": "122.3000"}, {"title": "Talusan", "lat": "7.4263", "long": "122.8084"}, {"title": "Majayjay", "lat": "14.1463", "long": "121.4729"}, {"title": "Mainit", "lat": "9.5369", "long": "125.5231"}, {"title": "Cabangan", "lat": "15.1333", "long": "120.1500"}, {"title": "Cuartero", "lat": "11.3428", "long": "122.6714"}, {"title": "Aloran", "lat": "8.4146", "long": "123.8228"}, {"title": "Bayang", "lat": "7.7930", "long": "124.1920"}, {"title": "Talisay", "lat": "14.1356", "long": "122.9244"}, {"title": "San Isidro", "lat": "12.3880", "long": "124.3310"}, {"title": "Dingalan", "lat": "15.3833", "long": "121.4000"}, {"title": "Alitagtag", "lat": "13.8650", "long": "121.0063"}, {"title": "Mahaplag", "lat": "10.6072", "long": "124.9636"}, {"title": "Lapuyan", "lat": "7.6325", "long": "123.1914"}, {"title": "Zarraga", "lat": "10.8167", "long": "122.6000"}, {"title": "Pitogo", "lat": "7.4536", "long": "123.3133"}, {"title": "Leon Postigo", "lat": "8.1514", "long": "122.9244"}, {"title": "Villareal", "lat": "11.5667", "long": "124.9333"}, {"title": "Bien Unido", "lat": "10.1333", "long": "124.3833"}, {"title": "Conner", "lat": "17.8086", "long": "121.2889"}, {"title": "Macalelon", "lat": "13.7500", "long": "122.1333"}, {"title": "Ramon Magsaysay", "lat": "8.0053", "long": "123.4869"}, {"title": "Palanas", "lat": "12.1464", "long": "123.9219"}, {"title": "San Isidro", "lat": "16.8667", "long": "121.7667"}, {"title": "Badiangan", "lat": "10.9860", "long": "122.5369"}, {"title": "Magarao", "lat": "13.6619", "long": "123.1903"}, {"title": "San Jose", "lat": "10.0083", "long": "125.5889"}, {"title": "Taraka", "lat": "7.8994", "long": "124.3481"}, {"title": "Saguiaran", "lat": "8.0333", "long": "124.2667"}, {"title": "Quezon", "lat": "17.3119", "long": "121.6050"}, {"title": "Labrador", "lat": "16.0339", "long": "120.1392"}, {"title": "San Juan", "lat": "17.7431", "long": "120.4583"}, {"title": "Tarragona", "lat": "7.0491", "long": "126.4471"}, {"title": "Santa Margarita", "lat": "12.0378", "long": "124.6578"}, {"title": "Pantar", "lat": "8.0667", "long": "124.2667"}, {"title": "Lagindingan", "lat": "8.5833", "long": "124.4500"}, {"title": "Sapian", "lat": "11.4939", "long": "122.6047"}, {"title": "Lauaan", "lat": "11.1429", "long": "122.0417"}, {"title": "Bugho", "lat": "10.8000", "long": "124.9333"}, {"title": "San Pablo", "lat": "7.6578", "long": "123.4597"}, {"title": "Macrohon", "lat": "10.0797", "long": "124.9431"}, {"title": "Malitbog", "lat": "8.5361", "long": "124.8808"}, {"title": "Pandag", "lat": "6.7411", "long": "124.7827"}, {"title": "Poro", "lat": "10.6290", "long": "124.4070"}, {"title": "Pura", "lat": "15.6248", "long": "120.6480"}, {"title": "Casiguran", "lat": "16.2833", "long": "122.1167"}, {"title": "Bubong", "lat": "8.0167", "long": "124.4833"}, {"title": "Mabini", "lat": "16.0697", "long": "119.9400"}, {"title": "Madalum", "lat": "7.8530", "long": "124.1190"}, {"title": "Del Gallego", "lat": "13.9233", "long": "122.5961"}, {"title": "Kayapa", "lat": "16.3583", "long": "120.8861"}, {"title": "Santa Josefa", "lat": "7.9842", "long": "126.0285"}, {"title": "Santa Lucia", "lat": "17.1222", "long": "120.4494"}, {"title": "Manito", "lat": "13.1235", "long": "123.8693"}, {"title": "Lamut", "lat": "16.6517", "long": "121.2178"}, {"title": "Burgos", "lat": "17.0667", "long": "121.7000"}, {"title": "Sinait", "lat": "17.8667", "long": "120.4583"}, {"title": "Buenavista", "lat": "13.2500", "long": "121.9500"}, {"title": "San Pablo", "lat": "17.4478", "long": "121.7950"}, {"title": "Sanchez-Mira", "lat": "18.5611", "long": "121.2344"}, {"title": "Infanta", "lat": "15.8208", "long": "119.9083"}, {"title": "Sierra Bullones", "lat": "9.8167", "long": "124.2833"}, {"title": "Socorro", "lat": "9.6181", "long": "125.9661"}, {"title": "Bobon", "lat": "12.5167", "long": "124.5667"}, {"title": "Dancagan", "lat": "7.6119", "long": "125.0028"}, {"title": "Binidayan", "lat": "7.8000", "long": "124.1667"}, {"title": "Tabina", "lat": "7.4655", "long": "123.4086"}, {"title": "Tubay", "lat": "9.1650", "long": "125.5226"}, {"title": "Natividad", "lat": "16.0422", "long": "120.7953"}, {"title": "Talisayan", "lat": "8.9917", "long": "124.8833"}, {"title": "Santa Maria", "lat": "17.4667", "long": "121.7500"}, {"title": "Tarangnan", "lat": "11.9000", "long": "124.7500"}, {"title": "Alegria", "lat": "9.7243", "long": "123.3402"}, {"title": "Altavas", "lat": "11.5383", "long": "122.4869"}, {"title": "Lopez Jaena", "lat": "8.5500", "long": "123.7667"}, {"title": "Allen", "lat": "12.5013", "long": "124.2820"}, {"title": "Ayuquitan", "lat": "9.4644", "long": "123.2237"}, {"title": "Tipo-Tipo", "lat": "6.5333", "long": "122.1667"}, {"title": "Busuanga", "lat": "12.1335", "long": "119.9363"}, {"title": "Unisan", "lat": "13.8413", "long": "121.9752"}, {"title": "Sarrat", "lat": "18.1578", "long": "120.6447"}, {"title": "Pangil", "lat": "14.4000", "long": "121.4667"}, {"title": "San Nicolas", "lat": "13.9283", "long": "120.9510"}, {"title": "Camalaniugan", "lat": "18.2756", "long": "121.6756"}, {"title": "San Miguel", "lat": "10.0000", "long": "124.3167"}, {"title": "Tumbao", "lat": "7.1167", "long": "124.3833"}, {"title": "Talugtug", "lat": "15.7789", "long": "120.8111"}, {"title": "Nagtipunan", "lat": "16.2167", "long": "121.6000"}, {"title": "Paete", "lat": "14.3667", "long": "121.4833"}, {"title": "Monreal", "lat": "12.6440", "long": "123.6648"}, {"title": "Paoay", "lat": "18.0625", "long": "120.5203"}, {"title": "Poblacion", "lat": "10.1614", "long": "125.1303"}, {"title": "Kalayaan", "lat": "14.3280", "long": "121.4800"}, {"title": "San Felipe", "lat": "15.0619", "long": "120.0700"}, {"title": "Pagudpud", "lat": "18.5614", "long": "120.7878"}, {"title": "Quirino", "lat": "17.1356", "long": "121.7350"}, {"title": "Dimasalang", "lat": "12.1933", "long": "123.8583"}, {"title": "Ternate", "lat": "14.2833", "long": "120.7167"}, {"title": "General Luna", "lat": "13.6881", "long": "122.1708"}, {"title": "Baroy", "lat": "8.0333", "long": "123.7833"}, {"title": "Balete", "lat": "14.0167", "long": "121.1000"}, {"title": "San Enrique", "lat": "10.4167", "long": "122.8500"}, {"title": "Solsona", "lat": "18.0961", "long": "120.7725"}, {"title": "Piat", "lat": "17.7919", "long": "121.4769"}, {"title": "Jabonga", "lat": "9.3431", "long": "125.5156"}, {"title": "Tugaya", "lat": "7.8840", "long": "124.1720"}, {"title": "Santo Tomas", "lat": "17.4000", "long": "121.7667"}, {"title": "Pamplona", "lat": "18.4661", "long": "121.3425"}, {"title": "Lucena", "lat": "10.8833", "long": "122.6000"}, {"title": "Tamilisan", "lat": "7.9761", "long": "122.6639"}, {"title": "Patian", "lat": "5.8444", "long": "121.1439"}, {"title": "Tuburan", "lat": "6.6000", "long": "122.2000"}, {"title": "Burdeos", "lat": "14.8436", "long": "121.9697"}, {"title": "Sagbayan", "lat": "9.9167", "long": "124.1000"}, {"title": "Carrascal", "lat": "9.3683", "long": "125.9494"}, {"title": "Malinao", "lat": "11.6431", "long": "122.3072"}, {"title": "Garcia Hernandez", "lat": "9.6144", "long": "124.2946"}, {"title": "Bacolod", "lat": "8.1892", "long": "124.0238"}, {"title": "Mina", "lat": "10.9333", "long": "122.5833"}, {"title": "Kauswagan", "lat": "8.1917", "long": "124.0847"}, {"title": "Alicia", "lat": "9.8957", "long": "124.4415"}, {"title": "Lagonglong", "lat": "8.8000", "long": "124.7833"}, {"title": "Caibiran", "lat": "11.5667", "long": "124.5833"}, {"title": "Ramain", "lat": "7.9667", "long": "124.3500"}, {"title": "San Fernando", "lat": "12.3167", "long": "122.6000"}, {"title": "San Agustin", "lat": "12.5689", "long": "122.1314"}, {"title": "Quezon", "lat": "16.4894", "long": "121.2639"}, {"title": "Bulusan", "lat": "12.7522", "long": "124.1356"}, {"title": "Magallanes", "lat": "14.1833", "long": "120.7500"}, {"title": "Cavinti", "lat": "14.2450", "long": "121.5070"}, {"title": "Pitogo", "lat": "10.1210", "long": "124.5530"}, {"title": "Tangalan", "lat": "11.7775", "long": "122.2603"}, {"title": "Catigbian", "lat": "9.8333", "long": "124.0333"}, {"title": "Limbuhan", "lat": "11.8836", "long": "124.0497"}, {"title": "Pakil", "lat": "14.3833", "long": "121.4833"}, {"title": "Burgos", "lat": "16.0465", "long": "119.8568"}, {"title": "Kalawit", "lat": "7.9051", "long": "122.5279"}, {"title": "Candoni", "lat": "9.8167", "long": "122.6000"}, {"title": "Padre Burgos", "lat": "13.9226", "long": "121.8116"}, {"title": "Baliguian", "lat": "7.8088", "long": "122.1452"}, {"title": "Ramos", "lat": "15.6667", "long": "120.6417"}, {"title": "Cuyo", "lat": "10.8500", "long": "121.0167"}, {"title": "Caba", "lat": "16.4316", "long": "120.3446"}, {"title": "Dumaran", "lat": "10.5333", "long": "119.7667"}, {"title": "Gamay", "lat": "12.3833", "long": "125.3000"}, {"title": "Maibog", "lat": "10.1500", "long": "125.0000"}, {"title": "Tugatog", "lat": "14.6629", "long": "120.9690"}, {"title": "Maigo", "lat": "8.1500", "long": "123.9667"}, {"title": "Barbasa", "lat": "11.1961", "long": "122.0389"}, {"title": "Calamba", "lat": "8.5583", "long": "123.6417"}, {"title": "General Luna", "lat": "9.7836", "long": "126.1567"}, {"title": "Calbiga", "lat": "11.6333", "long": "125.0167"}, {"title": "Cajidiocan", "lat": "12.3667", "long": "122.6833"}, {"title": "Tubungan", "lat": "10.7833", "long": "122.3000"}, {"title": "Culion", "lat": "11.8944", "long": "120.0186"}, {"title": "Carmen", "lat": "8.9999", "long": "125.2648"}, {"title": "Baclayon", "lat": "9.6227", "long": "123.9135"}, {"title": "Pitogo", "lat": "13.7850", "long": "122.0881"}, {"title": "Prieto Diaz", "lat": "13.0408", "long": "124.1931"}, {"title": "Viga", "lat": "13.8667", "long": "124.3000"}, {"title": "Oteiza", "lat": "8.7437", "long": "126.2214"}, {"title": "Lumbatan", "lat": "7.7850", "long": "124.2560"}, {"title": "Santa Teresita", "lat": "13.8664", "long": "120.9814"}, {"title": "Butig", "lat": "7.7239", "long": "124.3011"}, {"title": "Lazi", "lat": "9.1280", "long": "123.6340"}, {"title": "Magallanes", "lat": "9.0225", "long": "125.5179"}, {"title": "Parabcan", "lat": "13.7100", "long": "123.7450"}, {"title": "Sarangani", "lat": "5.4120", "long": "125.4220"}, {"title": "Naawan", "lat": "8.4333", "long": "124.3000"}, {"title": "Piddig", "lat": "18.1647", "long": "120.7172"}, {"title": "Batad", "lat": "11.4167", "long": "123.1167"}, {"title": "Santa Fe", "lat": "11.1856", "long": "124.9161"}, {"title": "Maribojoc", "lat": "9.7500", "long": "123.8500"}, {"title": "San Jose", "lat": "9.4167", "long": "123.2333"}, {"title": "Anini-y", "lat": "10.4325", "long": "121.9253"}, {"title": "Salcedo", "lat": "11.1500", "long": "125.6667"}, {"title": "Ugong", "lat": "14.5842", "long": "121.0729"}, {"title": "Bato", "lat": "13.6000", "long": "124.3000"}, {"title": "San Agustin", "lat": "16.5167", "long": "121.7500"}, {"title": "Madamba", "lat": "7.8833", "long": "124.0667"}, {"title": "Gigaquit", "lat": "9.5947", "long": "125.6975"}, {"title": "Guipos", "lat": "7.7350", "long": "123.3231"}, {"title": "Looc", "lat": "12.2605", "long": "121.9926"}, {"title": "MacArthur", "lat": "10.8356", "long": "124.9964"}, {"title": "Cabucgayan", "lat": "11.4719", "long": "124.5750"}, {"title": "San Fernando", "lat": "12.4858", "long": "123.7628"}, {"title": "Tigbao", "lat": "7.8205", "long": "123.2277"}, {"title": "Cagwait", "lat": "8.9181", "long": "126.3017"}, {"title": "Can-Avid", "lat": "12.0000", "long": "125.4500"}, {"title": "Rancheria Payau", "lat": "7.8509", "long": "123.1542"}, {"title": "Pandan", "lat": "14.0500", "long": "124.1667"}, {"title": "Tolosa", "lat": "11.0633", "long": "125.0353"}, {"title": "Inopacan", "lat": "10.5000", "long": "124.7500"}, {"title": "Clarin", "lat": "9.9667", "long": "124.0167"}, {"title": "Linamon", "lat": "8.1833", "long": "124.1667"}, {"title": "Mabitac", "lat": "14.4333", "long": "121.4167"}, {"title": "Llorente", "lat": "11.4125", "long": "125.5458"}, {"title": "Kitcharao", "lat": "9.4581", "long": "125.5756"}, {"title": "Ronda", "lat": "10.0003", "long": "123.4095"}, {"title": "Luna", "lat": "18.3311", "long": "121.3725"}, {"title": "Barcelona", "lat": "12.8694", "long": "124.1419"}, {"title": "Lugait", "lat": "8.3411", "long": "124.2592"}, {"title": "Dupax del Sur", "lat": "16.2842", "long": "121.0917"}, {"title": "Hindang", "lat": "10.4339", "long": "124.7278"}, {"title": "Aguinaldo", "lat": "16.9789", "long": "121.3272"}, {"title": "Luna", "lat": "16.9667", "long": "121.7333"}, {"title": "Luisiana", "lat": "14.1850", "long": "121.5109"}, {"title": "Banting", "lat": "5.7167", "long": "120.9000"}, {"title": "San Guillermo", "lat": "16.7244", "long": "121.8100"}, {"title": "Punturin", "lat": "14.7381", "long": "120.9978"}, {"title": "Samboan", "lat": "9.5288", "long": "123.3064"}, {"title": "Kawayan", "lat": "11.7000", "long": "124.3667"}, {"title": "Banaue", "lat": "16.9119", "long": "121.0614"}, {"title": "Sapang Dalaga", "lat": "8.5500", "long": "123.5667"}, {"title": "Caoayan", "lat": "17.5469", "long": "120.3831"}, {"title": "Kapay", "lat": "8.0833", "long": "124.4000"}, {"title": "Magsaysay", "lat": "8.0333", "long": "123.9167"}, {"title": "Pinan", "lat": "8.4822", "long": "123.4500"}, {"title": "Danao", "lat": "10.0167", "long": "124.2667"}, {"title": "Villa Verde", "lat": "16.6067", "long": "121.1828"}, {"title": "Del Carmen", "lat": "9.8690", "long": "125.9700"}, {"title": "Dagohoy", "lat": "9.9167", "long": "124.2833"}, {"title": "Malabuyoc", "lat": "9.6500", "long": "123.3333"}, {"title": "Valderrama", "lat": "11.0036", "long": "122.1294"}, {"title": "Mulundo", "lat": "7.9333", "long": "124.3833"}, {"title": "San Miguel", "lat": "7.6500", "long": "123.2678"}, {"title": "Santiago", "lat": "17.2947", "long": "120.4453"}, {"title": "San Miguel", "lat": "11.2942", "long": "124.8300"}, {"title": "Sinacaban", "lat": "8.2854", "long": "123.8436"}, {"title": "Tingloy", "lat": "13.6500", "long": "120.8667"}, {"title": "Santa Teresita", "lat": "18.2519", "long": "121.9100"}, {"title": "Cabusao", "lat": "13.7275", "long": "123.1142"}, {"title": "Pugo", "lat": "16.2833", "long": "120.4833"}, {"title": "Rizal", "lat": "17.5000", "long": "121.6000"}, {"title": "Tublay", "lat": "16.4764", "long": "120.6333"}, {"title": "Pastrana", "lat": "11.1333", "long": "124.8833"}, {"title": "Buruanga", "lat": "11.8438", "long": "121.8888"}, {"title": "Siruma", "lat": "14.0219", "long": "123.2589"}, {"title": "Cervantes", "lat": "16.9917", "long": "120.7333"}, {"title": "Espiritu", "lat": "17.9806", "long": "120.6544"}, {"title": "Marihatag", "lat": "8.8008", "long": "126.2983"}, {"title": "Alcoy", "lat": "9.7082", "long": "123.5060"}, {"title": "Jiabong", "lat": "11.7625", "long": "124.9519"}, {"title": "Tadian", "lat": "16.9961", "long": "120.8208"}, {"title": "La Paz", "lat": "10.8911", "long": "124.9572"}, {"title": "Kapangan", "lat": "16.5764", "long": "120.6053"}, {"title": "Diadi", "lat": "16.6600", "long": "121.3686"}, {"title": "Atok", "lat": "16.6272", "long": "120.7672"}, {"title": "Rizal", "lat": "17.8478", "long": "121.3450"}, {"title": "San Teodoro", "lat": "13.4358", "long": "121.0192"}, {"title": "Lumbayanague", "lat": "7.7833", "long": "124.2833"}, {"title": "Malanday", "lat": "14.7194", "long": "120.9547"}, {"title": "San Gabriel", "lat": "16.6667", "long": "120.4000"}, {"title": "Malimono", "lat": "9.6183", "long": "125.4019"}, {"title": "Duero", "lat": "9.7167", "long": "124.4000"}, {"title": "Santander", "lat": "9.4500", "long": "123.3333"}, {"title": "Cortes", "lat": "9.7167", "long": "123.8833"}, {"title": "Rizal", "lat": "14.1083", "long": "121.3917"}, {"title": "Sebaste", "lat": "11.5901", "long": "122.0945"}, {"title": "Madalag", "lat": "11.5269", "long": "122.3064"}, {"title": "Taft", "lat": "11.9058", "long": "125.4181"}, {"title": "Nunungan", "lat": "7.8167", "long": "123.9667"}, {"title": "Balilihan", "lat": "9.7500", "long": "123.9667"}, {"title": "Paglat", "lat": "6.7811", "long": "124.7849"}, {"title": "Baliangao", "lat": "8.6667", "long": "123.6000"}, {"title": "Bilar", "lat": "9.7000", "long": "124.1000"}, {"title": "Bombon", "lat": "13.6867", "long": "123.1994"}, {"title": "Paluan", "lat": "13.4167", "long": "120.4667"}, {"title": "Tinajeros", "lat": "14.6733", "long": "120.9690"}, {"title": "Tinoc", "lat": "16.6750", "long": "120.9367"}, {"title": "Mayorga", "lat": "10.9000", "long": "125.0000"}, {"title": "Cagdianao", "lat": "9.9167", "long": "125.6667"}, {"title": "Gitagum", "lat": "8.5956", "long": "124.4054"}, {"title": "Santa Fe", "lat": "16.1592", "long": "120.9378"}, {"title": "Almeria", "lat": "11.6206", "long": "124.3794"}, {"title": "Marcos", "lat": "18.0444", "long": "120.6786"}, {"title": "Pinabacdao", "lat": "11.6167", "long": "124.9833"}, {"title": "San Jose", "lat": "12.5310", "long": "124.4870"}, {"title": "Loay", "lat": "9.6000", "long": "124.0167"}, {"title": "Libjo", "lat": "10.1960", "long": "125.5328"}, {"title": "Buadiposo-Buntong", "lat": "7.9667", "long": "124.3833"}, {"title": "Bucay", "lat": "17.5388", "long": "120.7167"}, {"title": "Santa Fe", "lat": "12.1500", "long": "122.0000"}, {"title": "Anda", "lat": "9.7440", "long": "124.5760"}, {"title": "Cortes", "lat": "9.2753", "long": "126.1911"}, {"title": "San Rafael", "lat": "11.1728", "long": "122.8267"}, {"title": "Flora", "lat": "18.2147", "long": "121.4186"}, {"title": "Marabut", "lat": "11.1167", "long": "125.2167"}, {"title": "Jovellar", "lat": "13.0667", "long": "123.6000"}, {"title": "Biliran", "lat": "11.5800", "long": "124.4800"}, {"title": "Catarman", "lat": "9.1333", "long": "124.6833"}, {"title": "Pinili", "lat": "17.9540", "long": "120.5270"}, {"title": "Esperanza", "lat": "11.7369", "long": "124.0417"}, {"title": "Kiangan", "lat": "16.7775", "long": "121.0878"}, {"title": "Talitay", "lat": "7.0353", "long": "124.3758"}, {"title": "Loboc", "lat": "9.6333", "long": "124.0333"}, {"title": "Sibutao", "lat": "8.6131", "long": "123.4797"}, {"title": "Palanan", "lat": "17.0589", "long": "122.4300"}, {"title": "Matagob", "lat": "11.1469", "long": "124.4733"}, {"title": "Libertad", "lat": "11.7690", "long": "121.9189"}, {"title": "Boljoon", "lat": "9.6333", "long": "123.4333"}, {"title": "San Jorge", "lat": "11.9833", "long": "124.8167"}, {"title": "Lubang", "lat": "13.8586", "long": "120.1228"}, {"title": "Tagana-an", "lat": "9.6964", "long": "125.5825"}, {"title": "Santa Magdalena", "lat": "12.6489", "long": "124.1083"}, {"title": "Alcantara", "lat": "12.2584", "long": "122.0543"}, {"title": "Saguday", "lat": "16.5394", "long": "121.5636"}, {"title": "Calayan", "lat": "19.2619", "long": "121.4753"}, {"title": "Alcantara", "lat": "9.9715", "long": "123.4047"}, {"title": "Sudipen", "lat": "16.9000", "long": "120.4667"}, {"title": "Tomas Oppus", "lat": "10.2500", "long": "124.9833"}, {"title": "Dilasag", "lat": "16.4000", "long": "122.2167"}, {"title": "Ginatilan", "lat": "9.6000", "long": "123.3500"}, {"title": "Kibungan", "lat": "16.6939", "long": "120.6539"}, {"title": "Famy", "lat": "14.4333", "long": "121.4500"}, {"title": "Tubaran", "lat": "7.7167", "long": "124.1667"}, {"title": "La Paz", "lat": "17.6739", "long": "120.6847"}, {"title": "Madrid", "lat": "9.2619", "long": "125.9647"}, {"title": "San Juan", "lat": "9.1590", "long": "123.4940"}, {"title": "Zumarraga", "lat": "11.6390", "long": "124.8410"}, {"title": "San Miguel", "lat": "11.4920", "long": "119.8710"}, {"title": "Arteche", "lat": "12.2694", "long": "125.3712"}, {"title": "Panukulan", "lat": "14.9333", "long": "121.8167"}, {"title": "Alegria", "lat": "9.4667", "long": "125.5767"}, {"title": "Bingawan", "lat": "11.2333", "long": "122.5667"}, {"title": "Leso", "lat": "11.6697", "long": "122.3269"}, {"title": "Alabat", "lat": "14.1023", "long": "122.0136"}, {"title": "Tankal", "lat": "8.0000", "long": "124.0000"}, {"title": "Quezon", "lat": "14.0500", "long": "122.1333"}, {"title": "Despujols", "lat": "12.5183", "long": "122.0108"}, {"title": "San Tomas", "lat": "15.8792", "long": "120.5883"}, {"title": "Santa Catalina", "lat": "17.5917", "long": "120.3644"}, {"title": "Julita", "lat": "10.9731", "long": "124.9622"}, {"title": "Kabayan", "lat": "16.6233", "long": "120.8381"}, {"title": "Sulat", "lat": "11.8167", "long": "125.4500"}, {"title": "San Miguel", "lat": "13.6411", "long": "124.3008"}, {"title": "Mayoyao", "lat": "16.9736", "long": "121.2214"}, {"title": "Anao-aon", "lat": "9.7778", "long": "125.4231"}, {"title": "Ambaguio", "lat": "16.5316", "long": "121.0282"}, {"title": "San Policarpo", "lat": "12.1791", "long": "125.5072"}, {"title": "Magdiwang", "lat": "12.4833", "long": "122.5167"}, {"title": "Pudtol", "lat": "18.2356", "long": "121.3733"}, {"title": "Victoria", "lat": "12.4500", "long": "124.3167"}, {"title": "Libagon", "lat": "10.3000", "long": "125.0500"}, {"title": "Tubod", "lat": "9.5547", "long": "125.5697"}, {"title": "Motiong", "lat": "11.7833", "long": "125.0000"}, {"title": "Maydolong", "lat": "11.5000", "long": "125.5000"}, {"title": "Tagoloan", "lat": "8.1333", "long": "124.2667"}, {"title": "Rizal", "lat": "8.5272", "long": "123.5517"}, {"title": "Silvino Lobos", "lat": "12.3281", "long": "124.8464"}, {"title": "Patnanungan", "lat": "14.7833", "long": "122.1833"}, {"title": "Bangui", "lat": "18.5378", "long": "120.7653"}, {"title": "Santa", "lat": "17.4860", "long": "120.4344"}, {"title": "Tatarikan", "lat": "7.7333", "long": "124.1167"}, {"title": "Antequera", "lat": "9.7812", "long": "123.8975"}, {"title": "Tayum", "lat": "17.6165", "long": "120.6553"}, {"title": "Mahinog", "lat": "9.1500", "long": "124.7833"}, {"title": "Matungao", "lat": "8.1333", "long": "124.1667"}, {"title": "San Juan", "lat": "10.2667", "long": "125.1833"}, {"title": "Calanogas", "lat": "7.7500", "long": "124.1000"}, {"title": "Lagangilang", "lat": "17.6103", "long": "120.7344"}, {"title": "Bacuag", "lat": "9.6081", "long": "125.6405"}, {"title": "Dimiao", "lat": "9.6167", "long": "124.1667"}, {"title": "San Julian", "lat": "11.7536", "long": "125.4558"}, {"title": "Batuan", "lat": "12.4222", "long": "123.7817"}, {"title": "Belison", "lat": "10.8381", "long": "121.9606"}, {"title": "Nampicuan", "lat": "15.7342", "long": "120.6356"}, {"title": "Larena", "lat": "9.2490", "long": "123.5910"}, {"title": "Lope de Vega", "lat": "12.2983", "long": "124.6238"}, {"title": "Quinapundan", "lat": "11.1578", "long": "125.5208"}, {"title": "Boston", "lat": "7.8697", "long": "126.3761"}, {"title": "Maria", "lat": "9.1960", "long": "123.6550"}, {"title": "Pualas", "lat": "7.8167", "long": "124.0667"}, {"title": "Bakun", "lat": "16.7925", "long": "120.6614"}, {"title": "Bagulin", "lat": "16.6079", "long": "120.4378"}, {"title": "Sison", "lat": "9.6592", "long": "125.5272"}, {"title": "General MacArthur", "lat": "11.2486", "long": "125.5400"}, {"title": "Araceli", "lat": "10.5529", "long": "119.9904"}, {"title": "Bokod", "lat": "16.4914", "long": "120.8300"}, {"title": "Kinogitan", "lat": "8.9855", "long": "124.7937"}, {"title": "Balangiga", "lat": "11.1097", "long": "125.3875"}, {"title": "Mapanas", "lat": "12.4750", "long": "125.2540"}, {"title": "Santol", "lat": "16.7667", "long": "120.4500"}, {"title": "San Vicente", "lat": "17.5947", "long": "120.3753"}, {"title": "Batuan", "lat": "9.8000", "long": "124.1333"}, {"title": "Sampaloc", "lat": "14.1625", "long": "121.6378"}, {"title": "Hinabangan", "lat": "11.7000", "long": "125.0667"}, {"title": "Lanuza", "lat": "9.2322", "long": "126.0592"}, {"title": "Dakit", "lat": "10.0600", "long": "125.1606"}, {"title": "Baras", "lat": "13.6667", "long": "124.3667"}, {"title": "Libertad", "lat": "8.5583", "long": "124.3500"}, {"title": "San Clemente", "lat": "15.7119", "long": "120.3603"}, {"title": "Santa Marcela", "lat": "18.2872", "long": "121.4375"}, {"title": "Lawang Bato", "lat": "14.7300", "long": "120.9961"}, {"title": "Giporlos", "lat": "11.1208", "long": "125.4494"}, {"title": "Agutaya", "lat": "11.1520", "long": "120.9396"}, {"title": "Tinglayan", "lat": "17.2650", "long": "121.1489"}, {"title": "Silago", "lat": "10.5291", "long": "125.1618"}, {"title": "Agdangan", "lat": "13.8758", "long": "121.9122"}, {"title": "Culaba", "lat": "11.6578", "long": "124.5425"}, {"title": "Sagay", "lat": "9.1167", "long": "124.7167"}, {"title": "Lawaan", "lat": "11.1408", "long": "125.3011"}, {"title": "Burgos", "lat": "17.3331", "long": "120.4944"}, {"title": "Perez", "lat": "14.1833", "long": "121.9333"}, {"title": "Santo Nino", "lat": "11.9263", "long": "124.4492"}, {"title": "Balbalan", "lat": "17.4436", "long": "121.2008"}, {"title": "Pilar", "lat": "10.8070", "long": "124.5650"}, {"title": "Magsaysay", "lat": "10.8667", "long": "121.0500"}, {"title": "San Vicente", "lat": "14.1061", "long": "122.8733"}, {"title": "Pidigan", "lat": "17.5703", "long": "120.5893"}, {"title": "Anao", "lat": "15.7304", "long": "120.6264"}, {"title": "Capul", "lat": "12.4230", "long": "124.1820"}, {"title": "Tagoloan", "lat": "8.1092", "long": "124.4392"}, {"title": "Hinundayan", "lat": "10.3500", "long": "125.2500"}, {"title": "Currimao", "lat": "18.0203", "long": "120.4864"}, {"title": "Calanasan", "lat": "18.2550", "long": "121.0436"}, {"title": "Lila", "lat": "9.6000", "long": "124.1000"}, {"title": "Josefina", "lat": "8.2144", "long": "123.5439"}, {"title": "Tabontabon", "lat": "11.0333", "long": "124.9667"}, {"title": "Gainza", "lat": "13.6167", "long": "123.1414"}, {"title": "Agcogon", "lat": "12.0667", "long": "121.9333"}, {"title": "Lapinig", "lat": "12.3150", "long": "125.3020"}, {"title": "Nueva Era", "lat": "17.9167", "long": "120.6667"}, {"title": "Mutia", "lat": "8.4176", "long": "123.4771"}, {"title": "Carmen", "lat": "9.2289", "long": "126.0167"}, {"title": "Dolores", "lat": "17.6490", "long": "120.7103"}, {"title": "Biri", "lat": "12.6667", "long": "124.3833"}, {"title": "Manabo", "lat": "17.4331", "long": "120.7048"}, {"title": "Sablan", "lat": "16.4967", "long": "120.4875"}, {"title": "Alburquerque", "lat": "9.6104", "long": "123.9549"}, {"title": "Sagada", "lat": "17.0842", "long": "120.9008"}, {"title": "Tudela", "lat": "10.6360", "long": "124.4700"}, {"title": "Padre Burgos", "lat": "10.0333", "long": "125.0167"}, {"title": "Sevilla", "lat": "9.7000", "long": "124.0500"}, {"title": "Calatrava", "lat": "12.6167", "long": "122.0708"}, {"title": "Rosario", "lat": "12.5167", "long": "124.4167"}, {"title": "Bagamanoc", "lat": "13.9408", "long": "124.2888"}, {"title": "Salcedo", "lat": "17.1517", "long": "120.5361"}, {"title": "Balingoan", "lat": "9.0000", "long": "124.8500"}, {"title": "Panaon", "lat": "8.3667", "long": "123.8333"}, {"title": "San Juan", "lat": "17.6834", "long": "120.7320"}, {"title": "Suyo", "lat": "16.9839", "long": "120.5139"}, {"title": "Burgos", "lat": "18.5114", "long": "120.6444"}, {"title": "San Ricardo", "lat": "9.9167", "long": "125.2833"}, {"title": "Dinagat", "lat": "9.9561", "long": "125.5933"}, {"title": "Pasil", "lat": "17.3894", "long": "121.1597"}, {"title": "Galimuyod", "lat": "17.1833", "long": "120.4667"}, {"title": "Pilar", "lat": "9.8639", "long": "126.1008"}, {"title": "Pintuyan", "lat": "9.9500", "long": "125.2500"}, {"title": "Corcuera", "lat": "12.8000", "long": "122.0500"}, {"title": "Plaridel", "lat": "13.9511", "long": "122.0203"}, {"title": "Natonin", "lat": "17.1089", "long": "121.2797"}, {"title": "Pilar", "lat": "17.4168", "long": "120.5954"}, {"title": "Balangkayan", "lat": "11.4728", "long": "125.5108"}, {"title": "Sugbongkogon", "lat": "8.9500", "long": "124.7833"}, {"title": "Hingyon", "lat": "16.8522", "long": "121.0989"}, {"title": "San Isidro", "lat": "9.8000", "long": "124.3000"}, {"title": "Panganiban", "lat": "13.9000", "long": "124.3000"}, {"title": "Sabangan", "lat": "17.0044", "long": "120.9233"}, {"title": "Corella", "lat": "9.6833", "long": "123.9167"}, {"title": "Loreto", "lat": "10.3586", "long": "125.5816"}, {"title": "Santa Monica", "lat": "10.0200", "long": "126.0380"}, {"title": "Almagro", "lat": "11.9108", "long": "124.2852"}, {"title": "Lubuagan", "lat": "17.3500", "long": "121.1833"}, {"title": "Quirino", "lat": "17.1383", "long": "120.6764"}, {"title": "Concepcion", "lat": "8.4167", "long": "123.6000"}, {"title": "San Antonio", "lat": "12.4140", "long": "124.2790"}, {"title": "Burgos", "lat": "16.5250", "long": "120.4583"}, {"title": "Tagapul-an", "lat": "12.0500", "long": "124.1500"}, {"title": "Bayabas", "lat": "8.9678", "long": "126.2817"}, {"title": "San Sebastian", "lat": "11.7000", "long": "125.0167"}, {"title": "Hunduan", "lat": "16.8333", "long": "121.0000"}, {"title": "Tanudan", "lat": "17.2814", "long": "121.2303"}, {"title": "Gigmoto", "lat": "13.7833", "long": "124.3833"}, {"title": "San Isidro", "lat": "9.9369", "long": "126.0886"}, {"title": "Hernani", "lat": "11.3239", "long": "125.6181"}, {"title": "Alfonso Castaneda", "lat": "15.7933", "long": "121.3025"}]