[{"title": "Doha", "lat": "25.2867", "long": "51.5333"}, {"title": "Ar Rayyan", "lat": "25.2500", "long": "51.4000"}, {"title": "Al Khawr", "lat": "25.6900", "long": "51.5100"}, {"title": "Ash Shihaniyah", "lat": "25.3722", "long": "51.2047"}, {"title": "Al Wakrah", "lat": "25.1800", "long": "51.6100"}, {"title": "Nu`ayjah", "lat": "25.2525", "long": "51.5592"}, {"title": "Umm Salal `Ali", "lat": "25.4697", "long": "51.3975"}, {"title": "Az Za`ayin", "lat": "25.5669", "long": "51.4847"}, {"title": "Madinat ash Shamal", "lat": "26.1167", "long": "51.2167"}, {"title": "Umm Qurun", "lat": "25.2500", "long": "51.3732"}, {"title": "Adh Dhakhirah", "lat": "25.7347", "long": "51.5475"}, {"title": "Al Jumayliyah", "lat": "25.6208", "long": "51.0819"}]