[{"title": "Apia", "lat": "-13.8333", "long": "-171.7500"}, {"title": "Afega", "lat": "-13.8019", "long": "-171.8217"}, {"title": "Leulumoega", "lat": "-13.8167", "long": "-171.9167"}, {"title": "Safotu", "lat": "-13.4528", "long": "-172.4036"}, {"title": "Asau", "lat": "-13.5194", "long": "-172.6372"}, {"title": "Lufilufi", "lat": "-13.8500", "long": "-171.5833"}, {"title": "Vailoa", "lat": "-13.7558", "long": "-172.3064"}, {"title": "Saleaula", "lat": "-13.4501", "long": "-172.3335"}, {"title": "Mulifanua", "lat": "-13.8333", "long": "-171.9833"}, {"title": "Samamea", "lat": "-13.9333", "long": "-171.5333"}, {"title": "Safotulafai", "lat": "-13.6817", "long": "-172.1850"}, {"title": "Satupa`itea", "lat": "-13.7659", "long": "-172.3269"}]