[{"title": "Freetown", "lat": "8.4844", "long": "-13.2344"}, {"title": "Bo", "lat": "7.9564", "long": "-11.7400"}, {"title": "Kenema", "lat": "7.8758", "long": "-11.1908"}, {"title": "Koidu", "lat": "8.6439", "long": "-10.9717"}, {"title": "Makeni", "lat": "8.8817", "long": "-12.0442"}, {"title": "Port Loko", "lat": "8.7667", "long": "-12.7875"}, {"title": "Leicester", "lat": "8.4500", "long": "-13.2167"}, {"title": "Koidu-Bulma", "lat": "8.4405", "long": "-10.8500"}, {"title": "Tongoma", "lat": "8.6500", "long": "-11.0667"}, {"title": "Magburaka", "lat": "8.7169", "long": "-11.9433"}, {"title": "Kambia", "lat": "9.1167", "long": "-12.9167"}, {"title": "Lunsar", "lat": "8.6833", "long": "-12.5333"}, {"title": "Newton", "lat": "8.3333", "long": "-13.0667"}, {"title": "Benguema", "lat": "8.3333", "long": "-13.0667"}, {"title": "Kailahun", "lat": "8.2772", "long": "-10.5739"}, {"title": "Motema", "lat": "8.6167", "long": "-11.1667"}, {"title": "Pendembu", "lat": "8.1000", "long": "-10.7000"}, {"title": "Pujehun", "lat": "7.3506", "long": "-11.7181"}, {"title": "Kabala", "lat": "9.5833", "long": "-11.5500"}, {"title": "Segbwema", "lat": "8.0000", "long": "-10.9500"}, {"title": "Bumpe", "lat": "7.8919", "long": "-11.9025"}, {"title": "Mongeri", "lat": "8.3167", "long": "-11.7333"}, {"title": "Binkolo", "lat": "8.9500", "long": "-11.9833"}, {"title": "Yengema", "lat": "8.6167", "long": "-11.1667"}, {"title": "Rokupr", "lat": "9.0167", "long": "-12.9500"}, {"title": "Gandorhun", "lat": "7.5564", "long": "-11.6925"}, {"title": "Moyamba", "lat": "8.1606", "long": "-12.4333"}, {"title": "Bonthe", "lat": "7.5264", "long": "-12.5050"}]