[{"title": "Bratislava", "lat": "48.1439", "long": "17.1097"}, {"title": "Kosice", "lat": "48.7167", "long": "21.2500"}, {"title": "Petrzalka", "lat": "48.1333", "long": "17.1167"}, {"title": "Zilina", "lat": "49.2228", "long": "18.7400"}, {"title": "Presov", "lat": "49.0017", "long": "21.2394"}, {"title": "Nitra", "lat": "48.3069", "long": "18.0864"}, {"title": "Banska Bystrica", "lat": "48.7353", "long": "19.1453"}, {"title": "Trnava", "lat": "48.3775", "long": "17.5883"}, {"title": "Trencin", "lat": "48.8919", "long": "18.0367"}, {"title": "Martin", "lat": "49.0650", "long": "18.9219"}, {"title": "Poprad", "lat": "49.0594", "long": "20.2975"}, {"title": "Prievidza", "lat": "48.7711", "long": "18.6217"}, {"title": "Zvolen", "lat": "48.5706", "long": "19.1175"}, {"title": "Povazska Bystrica", "lat": "49.1139", "long": "18.4417"}, {"title": "Michalovce", "lat": "48.7553", "long": "21.9133"}, {"title": "Nove Zamky", "lat": "47.9856", "long": "18.1578"}, {"title": "Spisska Nova Ves", "lat": "48.9439", "long": "20.5675"}, {"title": "Humenne", "lat": "48.9358", "long": "21.9067"}, {"title": "Komarno", "lat": "47.7633", "long": "18.1283"}, {"title": "Liptovsky Mikulas", "lat": "49.0842", "long": "19.6022"}, {"title": "Bardejov", "lat": "49.2933", "long": "21.2761"}, {"title": "Levice", "lat": "48.2164", "long": "18.6081"}, {"title": "Lucenec", "lat": "48.3286", "long": "19.6692"}, {"title": "Piest'any", "lat": "48.5842", "long": "17.8336"}, {"title": "Ruzomberok", "lat": "49.0786", "long": "19.3083"}, {"title": "Topol'cany", "lat": "48.5542", "long": "18.1769"}, {"title": "Pezinok", "lat": "48.2919", "long": "17.2661"}, {"title": "Trebisov", "lat": "48.6278", "long": "21.7172"}, {"title": "Cadca", "lat": "49.4358", "long": "18.7922"}, {"title": "Dubnica nad Vahom", "lat": "48.9606", "long": "18.1739"}, {"title": "Rimavska Sobota", "lat": "48.3811", "long": "20.0144"}, {"title": "Dunajska Streda", "lat": "47.9944", "long": "17.6194"}, {"title": "Partizanske", "lat": "48.6258", "long": "18.3728"}, {"title": "Vranov nad Topl'ou", "lat": "48.8808", "long": "21.6733"}, {"title": "Sal'a", "lat": "48.1503", "long": "17.8775"}, {"title": "Hlohovec", "lat": "48.4333", "long": "17.8033"}, {"title": "Brezno", "lat": "48.8039", "long": "19.6436"}, {"title": "Senica", "lat": "48.6806", "long": "17.3667"}, {"title": "Nove Mesto nad Vahom", "lat": "48.7547", "long": "17.8308"}, {"title": "Senec", "lat": "48.2189", "long": "17.3997"}, {"title": "Snina", "lat": "48.9881", "long": "22.1567"}, {"title": "Ziar nad Hronom", "lat": "48.5842", "long": "18.8608"}, {"title": "Malacky", "lat": "48.4358", "long": "17.0178"}, {"title": "Roznava", "lat": "48.6583", "long": "20.5308"}, {"title": "Dolny Kubin", "lat": "49.2106", "long": "19.2975"}, {"title": "Banovce nad Bebravou", "lat": "48.7186", "long": "18.2581"}, {"title": "Puchov", "lat": "49.1200", "long": "18.3306"}, {"title": "Handlova", "lat": "48.7272", "long": "18.7619"}, {"title": "Kezmarok", "lat": "49.1336", "long": "20.4264"}, {"title": "Stara L'ubovna", "lat": "49.3094", "long": "20.6789"}, {"title": "Sered'", "lat": "48.2886", "long": "17.7314"}, {"title": "Skalica", "lat": "48.8422", "long": "17.2267"}, {"title": "Kysucke Nove Mesto", "lat": "49.2983", "long": "18.7867"}, {"title": "Galanta", "lat": "48.1889", "long": "17.7264"}, {"title": "Detva", "lat": "48.5514", "long": "19.4183"}, {"title": "Levoca", "lat": "49.0253", "long": "20.5881"}, {"title": "Samorin", "lat": "48.0267", "long": "17.3117"}, {"title": "Sabinov", "lat": "49.1061", "long": "21.0856"}, {"title": "Vel'ky Krtis", "lat": "48.2150", "long": "19.3381"}, {"title": "Stupava", "lat": "48.2747", "long": "17.0317"}, {"title": "Revuca", "lat": "48.6831", "long": "20.1133"}, {"title": "Nova Dubnica", "lat": "48.9331", "long": "18.1439"}, {"title": "Zlate Moravce", "lat": "48.3783", "long": "18.3967"}, {"title": "Myjava", "lat": "48.7492", "long": "17.5644"}, {"title": "Moldava nad Bodvou", "lat": "48.6064", "long": "21.0003"}, {"title": "Bytca", "lat": "49.2242", "long": "18.5642"}, {"title": "Svidnik", "lat": "49.3056", "long": "21.5678"}, {"title": "Holic", "lat": "48.8122", "long": "17.1606"}, {"title": "Fil'akovo", "lat": "48.2683", "long": "19.8247"}, {"title": "Sturovo", "lat": "47.7992", "long": "18.7181"}, {"title": "Stropkov", "lat": "49.2050", "long": "21.6514"}, {"title": "Kolarovo", "lat": "47.9169", "long": "17.9956"}, {"title": "Banska Stiavnica", "lat": "48.4581", "long": "18.8964"}, {"title": "Surany", "lat": "48.0872", "long": "18.1861"}, {"title": "Modra", "lat": "48.3317", "long": "17.3089"}, {"title": "Tvrdosin", "lat": "49.3343", "long": "19.5548"}, {"title": "Vel'ke Kapusany", "lat": "48.5503", "long": "22.0847"}, {"title": "Krompachy", "lat": "48.9139", "long": "20.8739"}, {"title": "Bernolakovo", "lat": "48.1992", "long": "17.3003"}, {"title": "Stara Tura", "lat": "48.7767", "long": "17.6961"}, {"title": "Vel'ky Meder", "lat": "47.8564", "long": "17.7706"}, {"title": "Vrable", "lat": "48.2408", "long": "18.3086"}, {"title": "Smizany", "lat": "48.9556", "long": "20.5292"}]