[{"title": "Honiara", "lat": "-9.4319", "long": "159.9556"}, {"title": "Auki", "lat": "-8.7667", "long": "160.7000"}, {"title": "Gizo", "lat": "-8.1056", "long": "156.8389"}, {"title": "Kirakira", "lat": "-10.4500", "long": "161.9167"}, {"title": "Buala", "lat": "-8.1333", "long": "159.5833"}, {"title": "Tulagi", "lat": "-9.1014", "long": "160.1467"}, {"title": "Taro", "lat": "-6.7111", "long": "156.3972"}, {"title": "Lata", "lat": "-10.7167", "long": "165.8333"}, {"title": "Tigoa", "lat": "-11.5583", "long": "160.0706"}]