[{"title": "Colombo", "lat": "6.9344", "long": "79.8428"}, {"title": "Sri Jayewardenepura Kotte", "lat": "6.9108", "long": "79.8878"}, {"title": "Mount Lavinia", "lat": "6.8731", "long": "79.8758"}, {"title": "Kesbewa", "lat": "6.7953", "long": "79.9386"}, {"title": "Moratuwa", "lat": "6.7991", "long": "79.8767"}, {"title": "Maharagama", "lat": "6.8494", "long": "79.9236"}, {"title": "Ratnapura", "lat": "6.6806", "long": "80.4022"}, {"title": "Kandy", "lat": "7.2964", "long": "80.6350"}, {"title": "Negombo", "lat": "7.2111", "long": "79.8386"}, {"title": "Batticaloa", "lat": "7.7167", "long": "81.7000"}, {"title": "Mawanella", "lat": "7.2534", "long": "80.4466"}, {"title": "Trincomalee", "lat": "8.5667", "long": "81.2333"}, {"title": "Kalmunai", "lat": "7.4167", "long": "81.8167"}, {"title": "Kotmale", "lat": "7.0167", "long": "80.5833"}, {"title": "Kilinochchi", "lat": "9.4004", "long": "80.3999"}, {"title": "Hikkaduwa", "lat": "6.1472", "long": "80.1103"}, {"title": "Galle", "lat": "6.0536", "long": "80.2117"}, {"title": "Jaffna", "lat": "9.6647", "long": "80.0167"}, {"title": "Athurugiriya", "lat": "6.8922", "long": "79.9428"}, {"title": "Weligama", "lat": "5.9739", "long": "80.4294"}, {"title": "Tangalla", "lat": "6.0167", "long": "80.7833"}, {"title": "Kolonnawa", "lat": "6.9283", "long": "79.8950"}, {"title": "Matara", "lat": "5.9500", "long": "80.5333"}, {"title": "Gampaha", "lat": "7.0917", "long": "79.9997"}, {"title": "Akurana", "lat": "7.3650", "long": "80.6172"}, {"title": "Anuradhapura", "lat": "8.3350", "long": "80.4108"}, {"title": "Puttalam", "lat": "8.0330", "long": "79.8260"}, {"title": "Badulla", "lat": "6.9847", "long": "81.0564"}, {"title": "Matale", "lat": "7.4667", "long": "80.6167"}, {"title": "Kalutara", "lat": "6.5869", "long": "79.9603"}, {"title": "Bentota", "lat": "6.4200", "long": "80.0000"}, {"title": "Mannar", "lat": "8.9772", "long": "79.9138"}, {"title": "Mabole", "lat": "7.0000", "long": "79.9000"}, {"title": "Pothuhera", "lat": "7.4199", "long": "80.3274"}, {"title": "Kurunegala", "lat": "7.4833", "long": "80.3667"}, {"title": "Nuwara Eliya", "lat": "6.9667", "long": "80.7667"}, {"title": "Hatton", "lat": "6.8897", "long": "80.5981"}, {"title": "Galhinna", "lat": "7.4161", "long": "80.5688"}, {"title": "Hambantota", "lat": "6.1244", "long": "81.1225"}, {"title": "Abasingammedda", "lat": "7.3167", "long": "80.6667"}, {"title": "Kalpitiya", "lat": "8.1667", "long": "79.7167"}, {"title": "Tissamaharama", "lat": "6.2833", "long": "81.2833"}, {"title": "Dambulla", "lat": "7.8578", "long": "80.6525"}, {"title": "Galgamuwa", "lat": "8.0000", "long": "80.2831"}, {"title": "Dikwella South", "lat": "5.9667", "long": "80.6833"}, {"title": "Kalawana", "lat": "6.5315", "long": "80.3967"}, {"title": "Nikaweratiya", "lat": "7.7475", "long": "80.1156"}, {"title": "Bakamune", "lat": "7.7831", "long": "80.8183"}, {"title": "Sevanagala", "lat": "6.3867", "long": "80.9092"}, {"title": "Vavuniya", "lat": "8.7500", "long": "80.4833"}, {"title": "Gampola", "lat": "7.1647", "long": "80.5767"}, {"title": "Mullaittivu", "lat": "9.2833", "long": "80.8000"}, {"title": "Point Pedro", "lat": "9.8167", "long": "80.2333"}, {"title": "Hakmana", "lat": "6.0796", "long": "80.6577"}, {"title": "Kegalle", "lat": "7.2531", "long": "80.3453"}, {"title": "Gandara West", "lat": "5.9500", "long": "80.5500"}, {"title": "Monaragala", "lat": "6.8726", "long": "81.3373"}]