[{"title": "Mbabane", "lat": "-26.3208", "long": "31.1617"}, {"title": "Lobamba", "lat": "-26.4465", "long": "31.2064"}, {"title": "Manzini", "lat": "-26.4833", "long": "31.3667"}, {"title": "Siteki", "lat": "-26.4500", "long": "31.9500"}, {"title": "Nhlangano", "lat": "-27.1167", "long": "31.2000"}, {"title": "Lavumisa", "lat": "-27.3167", "long": "31.9000"}, {"title": "Hlatikulu", "lat": "-26.9667", "long": "31.3167"}, {"title": "Piggs Peak", "lat": "-25.9610", "long": "31.2470"}]