[{"title": "Bern", "lat": "46.9481", "long": "7.4475"}, {"title": "Zurich", "lat": "47.3744", "long": "8.5411"}, {"title": "Geneva", "lat": "46.2017", "long": "6.1469"}, {"title": "Basel", "lat": "47.5547", "long": "7.5906"}, {"title": "Lausanne", "lat": "46.5198", "long": "6.6335"}, {"title": "Winterthur", "lat": "47.4989", "long": "8.7286"}, {"title": "Lucerne", "lat": "47.0500", "long": "8.3000"}, {"title": "Sankt Gallen", "lat": "47.4242", "long": "9.3708"}, {"title": "Biel/Bienne", "lat": "47.1333", "long": "7.2500"}, {"title": "Thun", "lat": "46.7667", "long": "7.6333"}, {"title": "Bellinzona", "lat": "46.1954", "long": "9.0297"}, {"title": "Fribourg", "lat": "46.8000", "long": "7.1500"}, {"title": "Vernier", "lat": "46.2000", "long": "6.1000"}, {"title": "Schaffhausen", "lat": "47.7000", "long": "8.6333"}, {"title": "Chur", "lat": "46.8500", "long": "9.5333"}, {"title": "Neuchatel", "lat": "47.0000", "long": "6.9333"}, {"title": "Yverdon-les-Bains", "lat": "46.7785", "long": "6.6408"}, {"title": "Zug", "lat": "47.1681", "long": "8.5169"}, {"title": "Carouge", "lat": "46.1833", "long": "6.1333"}, {"title": "Dubendorf", "lat": "47.4167", "long": "8.6167"}, {"title": "Dietikon", "lat": "47.4000", "long": "8.4000"}, {"title": "Vevey", "lat": "46.4667", "long": "6.8500"}, {"title": "Renens", "lat": "46.5333", "long": "6.5833"}, {"title": "Meyrin", "lat": "46.2167", "long": "6.0667"}, {"title": "Onex", "lat": "46.1833", "long": "6.1000"}, {"title": "Allschwil", "lat": "47.5500", "long": "7.5333"}, {"title": "Opfikon", "lat": "47.4333", "long": "8.5667"}, {"title": "Nyon", "lat": "46.3833", "long": "6.2333"}, {"title": "Aarau", "lat": "47.4000", "long": "8.0500"}, {"title": "Thalwil", "lat": "47.2833", "long": "8.5667"}, {"title": "Reinach", "lat": "47.4833", "long": "7.5833"}, {"title": "Schlieren", "lat": "47.4000", "long": "8.4500"}, {"title": "Pully", "lat": "46.5167", "long": "6.6667"}, {"title": "Adliswil", "lat": "47.3167", "long": "8.5333"}, {"title": "Ostermundigen", "lat": "46.9550", "long": "7.4894"}, {"title": "Morges", "lat": "46.5167", "long": "6.5000"}, {"title": "Solothurn", "lat": "47.2167", "long": "7.5333"}, {"title": "Binningen", "lat": "47.5333", "long": "7.5667"}, {"title": "Wallisellen", "lat": "47.4150", "long": "8.5967"}, {"title": "Prilly", "lat": "46.5333", "long": "6.6000"}, {"title": "Thonex", "lat": "46.1833", "long": "6.1833"}, {"title": "Arbon", "lat": "47.5167", "long": "9.4333"}, {"title": "Schwyz", "lat": "47.0167", "long": "8.6500"}, {"title": "La Tour-de-Peilz", "lat": "46.4500", "long": "6.8667"}, {"title": "Liestal", "lat": "47.4667", "long": "7.7333"}, {"title": "Chene-Bougeries", "lat": "46.1833", "long": "6.1833"}, {"title": "Ecublens", "lat": "46.5276", "long": "6.5605"}, {"title": "Le Grand-Saconnex", "lat": "46.2333", "long": "6.1167"}, {"title": "Rorschach", "lat": "47.4667", "long": "9.5000"}, {"title": "Birsfelden", "lat": "47.5533", "long": "7.6233"}, {"title": "Villars-sur-Glane", "lat": "46.7833", "long": "7.1167"}, {"title": "Mannedorf", "lat": "47.2553", "long": "8.6917"}, {"title": "Delemont", "lat": "47.3667", "long": "7.3500"}, {"title": "Kilchberg", "lat": "47.3247", "long": "8.5492"}, {"title": "Widnau", "lat": "47.3997", "long": "9.6333"}, {"title": "Epalinges", "lat": "46.5500", "long": "6.6667"}, {"title": "Sarnen", "lat": "46.8961", "long": "8.2456"}, {"title": "Altdorf", "lat": "46.8667", "long": "8.6333"}, {"title": "Stans", "lat": "46.9500", "long": "8.3500"}, {"title": "Glarus", "lat": "47.0333", "long": "9.0667"}, {"title": "Appenzell", "lat": "47.3333", "long": "9.4167"}, {"title": "Lugano", "lat": "46.0050", "long": "8.9525"}, {"title": "Koniz", "lat": "46.9333", "long": "7.4000"}, {"title": "La Chaux-de-Fonds", "lat": "47.1013", "long": "6.8250"}, {"title": "Uster", "lat": "47.3500", "long": "8.7167"}, {"title": "Sion", "lat": "46.2333", "long": "7.3667"}, {"title": "Landecy", "lat": "46.1834", "long": "6.1166"}, {"title": "Emmen", "lat": "47.0833", "long": "8.3000"}, {"title": "Rapperswil-Jona", "lat": "47.2167", "long": "8.8167"}, {"title": "Kriens", "lat": "47.0333", "long": "8.2833"}, {"title": "Montreux", "lat": "46.4333", "long": "6.9167"}, {"title": "Frauenfeld", "lat": "47.5500", "long": "8.9000"}, {"title": "Wetzikon", "lat": "47.3167", "long": "8.8000"}, {"title": "Baar", "lat": "47.2000", "long": "8.5167"}, {"title": "Wil", "lat": "47.4667", "long": "9.0500"}, {"title": "Horgen", "lat": "47.2667", "long": "8.6000"}, {"title": "Kreuzlingen", "lat": "47.6333", "long": "9.1667"}, {"title": "Bulle", "lat": "46.6167", "long": "7.0500"}, {"title": "Riehen", "lat": "47.5833", "long": "7.6333"}, {"title": "Wadenswil", "lat": "47.2333", "long": "8.6667"}, {"title": "Wettingen", "lat": "47.4659", "long": "8.3267"}, {"title": "Oberwingert", "lat": "47.5170", "long": "8.7690"}, {"title": "Bulach", "lat": "47.5167", "long": "8.5333"}, {"title": "Baden", "lat": "47.4667", "long": "8.3000"}, {"title": "Kloten", "lat": "47.4500", "long": "8.5833"}, {"title": "Olten", "lat": "47.3500", "long": "7.9000"}, {"title": "Volketswil", "lat": "47.3906", "long": "8.6953"}, {"title": "Regensdorf", "lat": "47.4333", "long": "8.4667"}, {"title": "Martigny", "lat": "46.1000", "long": "7.0667"}, {"title": "Muttenz", "lat": "47.5167", "long": "7.6500"}, {"title": "Gossau", "lat": "47.4167", "long": "9.2500"}, {"title": "Littau", "lat": "47.0494", "long": "8.2639"}, {"title": "Monthey", "lat": "46.2500", "long": "6.9500"}, {"title": "Pratteln", "lat": "47.5167", "long": "7.7000"}, {"title": "Grenchen", "lat": "47.1906", "long": "7.3964"}, {"title": "Stegen", "lat": "47.4760", "long": "8.7700"}, {"title": "Sierre", "lat": "46.3000", "long": "7.5333"}, {"title": "Freienbach", "lat": "47.2000", "long": "8.7500"}, {"title": "Burgdorf", "lat": "47.0500", "long": "7.6167"}, {"title": "Wohlen", "lat": "47.3506", "long": "8.2778"}, {"title": "Steffisburg", "lat": "46.7667", "long": "7.6333"}, {"title": "Locarno", "lat": "46.1667", "long": "8.8000"}, {"title": "Langenthal", "lat": "47.2167", "long": "7.7833"}, {"title": "Herisau", "lat": "47.3833", "long": "9.2667"}, {"title": "Lyss", "lat": "47.0667", "long": "7.3000"}, {"title": "Wulflingen", "lat": "47.5100", "long": "8.6830"}, {"title": "Stafa", "lat": "47.2400", "long": "8.7300"}, {"title": "Einsiedeln", "lat": "47.1167", "long": "8.7333"}, {"title": "Kusnacht", "lat": "47.3167", "long": "8.5833"}, {"title": "Mendrisio", "lat": "45.8667", "long": "8.9833"}, {"title": "Horw", "lat": "47.0167", "long": "8.3167"}, {"title": "Richterswil", "lat": "47.2167", "long": "8.7000"}, {"title": "Meilen", "lat": "47.2667", "long": "8.6333"}, {"title": "Zollikon", "lat": "47.3422", "long": "8.5783"}, {"title": "Oftringen", "lat": "47.3167", "long": "7.9167"}, {"title": "Muri", "lat": "46.9333", "long": "7.4833"}, {"title": "Versoix", "lat": "46.2833", "long": "6.1667"}, {"title": "Gland", "lat": "46.4200", "long": "6.2700"}, {"title": "Rheinfelden", "lat": "47.5500", "long": "7.8000"}, {"title": "Amriswil", "lat": "47.5500", "long": "9.3000"}, {"title": "Munchenstein", "lat": "47.5167", "long": "7.6167"}, {"title": "Uzwil", "lat": "47.4369", "long": "9.1333"}, {"title": "Spiez", "lat": "46.6833", "long": "7.6667"}, {"title": "Kussnacht", "lat": "47.0667", "long": "8.4333"}, {"title": "Brig-Glis", "lat": "46.3167", "long": "7.9667"}, {"title": "Buchs", "lat": "47.1667", "long": "9.4667"}, {"title": "Veyrier", "lat": "46.1667", "long": "6.1833"}, {"title": "Affoltern am Albis", "lat": "47.2833", "long": "8.4500"}, {"title": "Ruti", "lat": "47.2667", "long": "8.8500"}, {"title": "Spreitenbach", "lat": "47.4167", "long": "8.3667"}, {"title": "Brugg", "lat": "47.4864", "long": "8.2067"}, {"title": "Bassersdorf", "lat": "47.4431", "long": "8.6283"}, {"title": "Zofingen", "lat": "47.2833", "long": "7.9333"}, {"title": "Mattenhof", "lat": "47.4870", "long": "8.7470"}, {"title": "Oberwil", "lat": "47.5135", "long": "7.5546"}, {"title": "Pfaffikon", "lat": "47.3667", "long": "8.7833"}, {"title": "Plan-les-Ouates", "lat": "46.1667", "long": "6.1167"}, {"title": "Romanshorn", "lat": "47.5635", "long": "9.3564"}, {"title": "Weinfelden", "lat": "47.5698", "long": "9.1120"}, {"title": "Arth", "lat": "47.0644", "long": "8.5242"}, {"title": "Altstatten", "lat": "47.3833", "long": "9.5500"}, {"title": "Waltikon", "lat": "47.3667", "long": "8.5833"}, {"title": "Belp", "lat": "46.8914", "long": "7.4972"}, {"title": "Worb", "lat": "46.9306", "long": "7.5644"}, {"title": "Neuhausen am Rheinfall", "lat": "47.6833", "long": "8.6167"}, {"title": "Aesch", "lat": "47.4694", "long": "7.5942"}, {"title": "Hinwil", "lat": "47.3033", "long": "8.8444"}, {"title": "Mohlin", "lat": "47.5583", "long": "7.8458"}, {"title": "Sursee", "lat": "47.1667", "long": "8.1167"}, {"title": "Risch", "lat": "47.1411", "long": "8.4314"}, {"title": "Lutry", "lat": "46.5000", "long": "6.6833"}, {"title": "Lenzburg", "lat": "47.3833", "long": "8.1833"}, {"title": "Flawil", "lat": "47.4053", "long": "9.1977"}, {"title": "Suhr", "lat": "47.3747", "long": "8.0806"}, {"title": "Therwil", "lat": "47.4997", "long": "7.5500"}, {"title": "Goldach", "lat": "47.4831", "long": "9.4664"}, {"title": "Urdorf", "lat": "47.3867", "long": "8.4278"}, {"title": "Bernex", "lat": "46.1784", "long": "6.0684"}, {"title": "Davos", "lat": "46.8000", "long": "9.8333"}, {"title": "Le Locle", "lat": "47.0532", "long": "6.7482"}, {"title": "Maur", "lat": "47.3417", "long": "8.6703"}, {"title": "Hochdorf", "lat": "47.1664", "long": "8.2889"}, {"title": "Zuchwil", "lat": "47.2056", "long": "7.5597"}, {"title": "Aigle", "lat": "46.3167", "long": "6.9667"}, {"title": "Arlesheim", "lat": "47.4922", "long": "7.6203"}, {"title": "Wittenbach", "lat": "47.4667", "long": "9.3795"}, {"title": "Gossau", "lat": "47.3081", "long": "8.7567"}, {"title": "Neuenhof", "lat": "47.4469", "long": "8.3292"}, {"title": "Lachen", "lat": "47.1833", "long": "8.8500"}, {"title": "Payerne", "lat": "46.8167", "long": "6.9333"}, {"title": "Naters", "lat": "46.3237", "long": "7.9886"}, {"title": "Embrach", "lat": "47.5103", "long": "8.5933"}, {"title": "Wald", "lat": "47.2753", "long": "8.9144"}, {"title": "Steinhaus", "lat": "47.1969", "long": "8.4861"}, {"title": "Niederhasli", "lat": "47.4822", "long": "8.4861"}, {"title": "Estavayer-le-Lac", "lat": "46.8500", "long": "6.8472"}, {"title": "Fallanden", "lat": "47.3717", "long": "8.6400"}, {"title": "Rothrist", "lat": "47.3028", "long": "7.8833"}, {"title": "Eschenbach", "lat": "47.2709", "long": "8.9700"}, {"title": "Obersiggenthal", "lat": "47.4869", "long": "8.2921"}, {"title": "Ingenbohl", "lat": "47.0028", "long": "8.6117"}, {"title": "Schubelbach", "lat": "47.1733", "long": "8.9264"}, {"title": "Langnau", "lat": "46.9433", "long": "7.7853"}, {"title": "Aadorf", "lat": "47.4939", "long": "8.8975"}, {"title": "Hombrechtikon", "lat": "47.2500", "long": "8.7667"}, {"title": "Le Mont-sur-Lausanne", "lat": "46.5217", "long": "6.6269"}, {"title": "Landquart", "lat": "46.9688", "long": "9.5503"}, {"title": "Mels", "lat": "47.0497", "long": "9.4167"}, {"title": "Hunenberg", "lat": "47.1761", "long": "8.4264"}, {"title": "Kirchberg", "lat": "47.4000", "long": "9.0333"}, {"title": "Biberist", "lat": "47.1828", "long": "7.5586"}, {"title": "Unterageri", "lat": "47.1386", "long": "8.5844"}, {"title": "Egg", "lat": "47.3019", "long": "8.6906"}, {"title": "Oberriet", "lat": "47.3164", "long": "9.5664"}, {"title": "Fully", "lat": "46.1333", "long": "7.1167"}, {"title": "Wattwil", "lat": "47.2957", "long": "9.0830"}, {"title": "Bussy", "lat": "46.5500", "long": "6.5500"}, {"title": "Conthey", "lat": "46.2167", "long": "7.3000"}]