[{"title": "Taipei", "lat": "25.0375", "long": "121.5625"}, {"title": "Taichung", "lat": "24.1439", "long": "120.6794"}, {"title": "Kaohsiung", "lat": "22.6150", "long": "120.2975"}, {"title": "Tainan", "lat": "22.9833", "long": "120.1833"}, {"title": "Zhongli", "lat": "24.9650", "long": "121.2168"}, {"title": "Changhua", "lat": "24.0667", "long": "120.5333"}, {"title": "Pingtung", "lat": "22.6761", "long": "120.4942"}, {"title": "Hsinchu", "lat": "24.8167", "long": "120.9833"}, {"title": "Taoyuan District", "lat": "24.9913", "long": "121.3143"}, {"title": "Keelung", "lat": "25.1333", "long": "121.7333"}, {"title": "Chiayi", "lat": "23.4800", "long": "120.4497"}, {"title": "Zhubei", "lat": "24.8333", "long": "121.0119"}, {"title": "Pingzhen", "lat": "24.9439", "long": "121.2161"}, {"title": "Bade", "lat": "24.9575", "long": "121.2989"}, {"title": "Yangmei", "lat": "24.9167", "long": "121.1500"}, {"title": "Yilan", "lat": "24.7500", "long": "121.7500"}, {"title": "Yuanlin", "lat": "23.9611", "long": "120.5736"}, {"title": "Hualien", "lat": "23.9722", "long": "121.6064"}, {"title": "Taitung", "lat": "22.7583", "long": "121.1444"}, {"title": "Douliu", "lat": "23.7075", "long": "120.5439"}, {"title": "Toufen", "lat": "24.6832", "long": "120.9072"}, {"title": "Nantou", "lat": "23.9167", "long": "120.6833"}, {"title": "Zhudong", "lat": "24.7366", "long": "121.0916"}, {"title": "Miaoli", "lat": "24.5700", "long": "120.8200"}, {"title": "Hemei", "lat": "24.1167", "long": "120.5000"}, {"title": "Zhunan", "lat": "24.6833", "long": "120.8833"}, {"title": "Luodong", "lat": "24.6767", "long": "121.7669"}, {"title": "Magong", "lat": "23.5667", "long": "119.5833"}, {"title": "Taibao", "lat": "23.4500", "long": "120.3333"}, {"title": "Banqiao", "lat": "25.0143", "long": "121.4672"}, {"title": "Nangan", "lat": "26.1598", "long": "119.9432"}, {"title": "Jincheng", "lat": "24.4167", "long": "118.3167"}, {"title": "Caotun", "lat": "23.9830", "long": "120.7326"}, {"title": "Lugang", "lat": "24.0500", "long": "120.4333"}, {"title": "Ji'an", "lat": "23.9500", "long": "121.5722"}, {"title": "Hukou", "lat": "24.9000", "long": "121.0500"}, {"title": "Puli", "lat": "23.9667", "long": "120.9667"}, {"title": "Huwei", "lat": "23.7200", "long": "120.4354"}, {"title": "Minxiong", "lat": "23.5504", "long": "120.4457"}, {"title": "Xinfeng", "lat": "24.9167", "long": "121.0000"}, {"title": "Xihu", "lat": "23.9594", "long": "120.4800"}, {"title": "Zhushan", "lat": "23.6889", "long": "120.7289"}, {"title": "Chaozhou", "lat": "22.5500", "long": "120.5333"}, {"title": "Dongshan", "lat": "24.6319", "long": "121.7539"}, {"title": "Neibu", "lat": "22.6500", "long": "120.5875"}, {"title": "Pozi", "lat": "23.4611", "long": "120.2420"}, {"title": "Wandan", "lat": "22.5897", "long": "120.4851"}, {"title": "Mailiao", "lat": "23.7500", "long": "120.2500"}, {"title": "Erlin", "lat": "23.9229", "long": "120.4091"}, {"title": "Shuishang", "lat": "23.4319", "long": "120.4147"}, {"title": "Donggang", "lat": "22.4667", "long": "120.4544"}, {"title": "Huatan", "lat": "24.0316", "long": "120.5579"}, {"title": "Fuxing", "lat": "24.0341", "long": "120.4235"}, {"title": "Xiluo", "lat": "23.7827", "long": "120.4551"}, {"title": "Yuanli", "lat": "24.4168", "long": "120.6830"}, {"title": "Dounan", "lat": "23.6833", "long": "120.4833"}, {"title": "Zhongbu", "lat": "23.4082", "long": "120.5343"}, {"title": "Shetou", "lat": "23.9076", "long": "120.5992"}, {"title": "Beigang", "lat": "23.5667", "long": "120.3000"}, {"title": "Wujie", "lat": "24.7000", "long": "121.7833"}, {"title": "Dacun", "lat": "23.9911", "long": "120.5394"}, {"title": "Tianzhong", "lat": "23.8595", "long": "120.5878"}, {"title": "Shengang", "lat": "24.1648", "long": "120.4886"}, {"title": "Xiushui", "lat": "24.0356", "long": "120.5037"}, {"title": "Su'ao", "lat": "24.6000", "long": "121.8500"}, {"title": "Yongjing", "lat": "23.9223", "long": "120.5356"}, {"title": "Mingjian", "lat": "23.8510", "long": "120.6775"}, {"title": "Buxin", "lat": "23.9523", "long": "120.5349"}, {"title": "Jiaoxi", "lat": "24.8167", "long": "121.7667"}, {"title": "Beidou", "lat": "23.8747", "long": "120.5248"}, {"title": "Houlong", "lat": "24.6167", "long": "120.7833"}, {"title": "Zhuqi", "lat": "23.5065", "long": "120.6021"}, {"title": "Xinyuan", "lat": "22.5149", "long": "120.4470"}, {"title": "Xinbu", "lat": "24.8478", "long": "121.0956"}, {"title": "Buyan", "lat": "23.9961", "long": "120.4618"}, {"title": "Waiyuanshan", "lat": "24.7443", "long": "121.6684"}, {"title": "Tongxiao", "lat": "24.4833", "long": "120.6833"}, {"title": "Fangyuan", "lat": "23.9250", "long": "120.3158"}, {"title": "Gongguan", "lat": "24.5053", "long": "120.8447"}, {"title": "Xingang", "lat": "23.5600", "long": "120.3500"}, {"title": "Dalin", "lat": "23.5989", "long": "120.4700"}, {"title": "Gukeng", "lat": "23.6500", "long": "120.5667"}, {"title": "Hengchun", "lat": "22.0000", "long": "120.7500"}, {"title": "Pitou", "lat": "23.8775", "long": "120.4706"}, {"title": "Changzhi", "lat": "22.6833", "long": "120.5333"}, {"title": "Xizhou", "lat": "24.1156", "long": "120.5350"}, {"title": "Toucheng", "lat": "24.8500", "long": "121.8167"}, {"title": "Tuku", "lat": "23.6911", "long": "120.3620"}, {"title": "Citong", "lat": "23.7729", "long": "120.5277"}, {"title": "Guanxi", "lat": "24.8000", "long": "121.1833"}, {"title": "Tianwei", "lat": "23.9023", "long": "120.5214"}, {"title": "Yuanchang", "lat": "23.6420", "long": "120.3229"}, {"title": "Ligang", "lat": "22.8011", "long": "120.5070"}, {"title": "Kouhu", "lat": "23.5763", "long": "120.1725"}, {"title": "Budai", "lat": "23.3600", "long": "120.1700"}, {"title": "Erlun", "lat": "23.7910", "long": "120.3954"}, {"title": "Zhuangwei", "lat": "24.7702", "long": "121.8023"}, {"title": "Yanbu", "lat": "22.7544", "long": "120.5724"}, {"title": "Dongshi", "lat": "23.4748", "long": "120.1769"}, {"title": "Shuilin", "lat": "23.5662", "long": "120.2340"}, {"title": "Lunbei", "lat": "23.7789", "long": "120.3331"}, {"title": "Gaoshu", "lat": "22.8202", "long": "120.5979"}, {"title": "Fangliao", "lat": "22.3656", "long": "120.5936"}, {"title": "Fenyuan", "lat": "24.0154", "long": "120.6274"}, {"title": "Taixi", "lat": "23.7000", "long": "120.2000"}, {"title": "Yuli", "lat": "23.3875", "long": "121.3764"}, {"title": "Jiuru", "lat": "22.7333", "long": "120.4833"}, {"title": "Sihu", "lat": "23.6411", "long": "120.2010"}, {"title": "Sanxing", "lat": "24.6739", "long": "121.6631"}, {"title": "Xincheng", "lat": "24.0514", "long": "121.6083"}, {"title": "Xionglin", "lat": "24.7742", "long": "121.0964"}, {"title": "Wanluan", "lat": "22.5727", "long": "120.5678"}, {"title": "Jiadong", "lat": "22.4305", "long": "120.5471"}, {"title": "Dapi", "lat": "23.6494", "long": "120.4254"}, {"title": "Meishan", "lat": "23.5607", "long": "120.6296"}, {"title": "Linbian", "lat": "22.4333", "long": "120.5167"}, {"title": "Yizhu", "lat": "23.3565", "long": "120.2235"}, {"title": "Linnei", "lat": "23.7591", "long": "120.6184"}, {"title": "Guoxing", "lat": "24.0550", "long": "120.8700"}, {"title": "Xianxi", "lat": "24.1334", "long": "120.4589"}, {"title": "Shoufeng", "lat": "23.8667", "long": "121.5167"}, {"title": "Xiulin", "lat": "24.2167", "long": "121.5333"}, {"title": "Tongluo", "lat": "24.4833", "long": "120.7833"}, {"title": "Beinan", "lat": "22.7833", "long": "121.1167"}, {"title": "Zhutian", "lat": "22.5890", "long": "120.5303"}, {"title": "Lugu", "lat": "23.7500", "long": "120.7330"}, {"title": "Shuili", "lat": "23.7989", "long": "120.8553"}, {"title": "Ershui", "lat": "23.8167", "long": "120.6167"}, {"title": "Zhuolan", "lat": "24.3222", "long": "120.8447"}, {"title": "Renai", "lat": "24.0462", "long": "121.1304"}, {"title": "Kanding", "lat": "22.5194", "long": "120.5032"}, {"title": "Dacheng", "lat": "23.8483", "long": "120.3089"}, {"title": "Sanyi", "lat": "24.4167", "long": "120.7667"}, {"title": "Yuchi", "lat": "23.9000", "long": "120.9333"}, {"title": "Lucao", "lat": "23.4133", "long": "120.3092"}, {"title": "Zhutang", "lat": "23.8528", "long": "120.4114"}, {"title": "Baoshan", "lat": "24.7428", "long": "120.9991"}, {"title": "Xikou", "lat": "23.5947", "long": "120.3948"}, {"title": "Dongshicuo", "lat": "23.7021", "long": "120.2556"}, {"title": "Zhongliao", "lat": "23.9039", "long": "120.7819"}, {"title": "Dahu", "lat": "24.3978", "long": "120.8486"}, {"title": "Chenggong", "lat": "23.1167", "long": "121.3500"}, {"title": "Baozhong", "lat": "23.6956", "long": "120.3117"}, {"title": "Hengshan", "lat": "24.7100", "long": "121.1369"}, {"title": "Kuangfu", "lat": "23.6351", "long": "121.4228"}, {"title": "Zaoqiao", "lat": "24.6500", "long": "120.8667"}, {"title": "Linluo", "lat": "22.6506", "long": "120.5271"}, {"title": "Fanlu", "lat": "23.4494", "long": "120.6033"}, {"title": "Ruisui", "lat": "23.4333", "long": "121.5000"}, {"title": "Taimali", "lat": "22.6167", "long": "121.0000"}, {"title": "Fenglin", "lat": "23.7500", "long": "121.4333"}, {"title": "Nanzhou", "lat": "22.4789", "long": "120.5156"}, {"title": "Jiji", "lat": "23.8300", "long": "120.7830"}, {"title": "Touwu", "lat": "24.5833", "long": "120.8500"}, {"title": "Fuli", "lat": "23.1333", "long": "121.2833"}, {"title": "Xinpi", "lat": "22.4880", "long": "120.5814"}, {"title": "Nanzhuang", "lat": "24.5699", "long": "121.0157"}, {"title": "Beibu", "lat": "24.6639", "long": "121.0681"}, {"title": "Jianshi", "lat": "24.5761", "long": "121.3081"}]