[{"title": "Dar es Salaam", "lat": "-6.8161", "long": "39.2803"}, {"title": "Dodoma", "lat": "-6.1731", "long": "35.7419"}, {"title": "Mwanza", "lat": "-2.5167", "long": "32.9000"}, {"title": "Mbeya", "lat": "-8.9000", "long": "33.4500"}, {"title": "Arusha", "lat": "-3.3667", "long": "36.6833"}, {"title": "Tanga", "lat": "-5.0667", "long": "39.1000"}, {"title": "Kasulu", "lat": "-4.5800", "long": "30.1000"}, {"title": "Morogoro", "lat": "-6.8242", "long": "37.6633"}, {"title": "Zanzibar", "lat": "-6.1650", "long": "39.1990"}, {"title": "Tabora", "lat": "-5.0167", "long": "32.8000"}, {"title": "Bariadi", "lat": "-2.7919", "long": "33.9894"}, {"title": "Iringa", "lat": "-7.7700", "long": "35.6900"}, {"title": "Singida", "lat": "-4.8167", "long": "34.7500"}, {"title": "Sumbawanga", "lat": "-7.9667", "long": "31.6167"}, {"title": "Moshi", "lat": "-3.3349", "long": "37.3404"}, {"title": "Bukoba", "lat": "-1.3333", "long": "31.8167"}, {"title": "Kigoma", "lat": "-4.8833", "long": "29.6333"}, {"title": "Kibaha", "lat": "-6.7667", "long": "38.9167"}, {"title": "Tukuyu", "lat": "-9.2500", "long": "33.6500"}, {"title": "Shinyanga", "lat": "-3.6619", "long": "33.4231"}, {"title": "Musoma", "lat": "-1.5000", "long": "33.8000"}, {"title": "Songea", "lat": "-10.6833", "long": "35.6500"}, {"title": "Geita", "lat": "-2.8714", "long": "32.2294"}, {"title": "Mtwara", "lat": "-10.2736", "long": "40.1828"}, {"title": "Mpanda", "lat": "-6.3500", "long": "31.0667"}, {"title": "Handeni", "lat": "-5.4242", "long": "38.0194"}, {"title": "Chake Chake", "lat": "-5.2395", "long": "39.7700"}, {"title": "Njombe", "lat": "-9.3333", "long": "34.7667"}, {"title": "Lindi", "lat": "-9.9969", "long": "39.7144"}, {"title": "Kahama", "lat": "-3.8375", "long": "32.6000"}, {"title": "Nzega", "lat": "-4.2169", "long": "33.1864"}, {"title": "Babati", "lat": "-4.2167", "long": "35.7500"}, {"title": "Chato", "lat": "-2.6378", "long": "31.7669"}, {"title": "Wete", "lat": "-5.0567", "long": "39.7281"}, {"title": "Bububu", "lat": "-6.1658", "long": "39.1992"}, {"title": "Mahonda", "lat": "-5.9897", "long": "39.2519"}, {"title": "Vwawa", "lat": "-9.1081", "long": "32.9347"}, {"title": "Koani", "lat": "-6.1333", "long": "39.2833"}, {"title": "Ifakara", "lat": "-8.1000", "long": "36.6833"}, {"title": "Kilosa", "lat": "-6.8300", "long": "36.9875"}, {"title": "Uvinza", "lat": "-5.1036", "long": "30.3911"}, {"title": "Korogwe", "lat": "-5.1558", "long": "38.4503"}, {"title": "Tunduma", "lat": "-9.3000", "long": "32.7667"}, {"title": "Mbulu", "lat": "-3.8500", "long": "35.5500"}, {"title": "Masasi", "lat": "-10.7296", "long": "38.7999"}, {"title": "Geiro", "lat": "-6.1428", "long": "36.8694"}, {"title": "Bagamoyo", "lat": "-6.4444", "long": "38.9028"}, {"title": "Mlimba", "lat": "-8.7786", "long": "35.8111"}, {"title": "Misungwi", "lat": "-2.8500", "long": "33.0833"}, {"title": "Biharamulo", "lat": "-2.6333", "long": "31.3167"}, {"title": "Ngudu", "lat": "-2.9667", "long": "33.3333"}, {"title": "Tunduru", "lat": "-11.0667", "long": "37.3500"}, {"title": "Kibiti", "lat": "-7.7296", "long": "38.9500"}, {"title": "Lushoto", "lat": "-4.7928", "long": "38.2911"}, {"title": "Sikonge", "lat": "-5.6333", "long": "32.7667"}, {"title": "Masanwa", "lat": "-3.1833", "long": "33.7833"}, {"title": "Manyoni", "lat": "-5.7500", "long": "34.8333"}, {"title": "Kabanga", "lat": "-2.9022", "long": "30.4986"}, {"title": "Kakonko", "lat": "-3.2796", "long": "30.9600"}, {"title": "Itigi", "lat": "-5.7000", "long": "34.4833"}, {"title": "Mpwapwa", "lat": "-6.3500", "long": "36.4833"}, {"title": "Mazinde", "lat": "-4.8073", "long": "38.2118"}, {"title": "Ngara", "lat": "-2.5122", "long": "30.6558"}, {"title": "Sirari", "lat": "-1.2244", "long": "34.4383"}, {"title": "Same", "lat": "-4.0667", "long": "37.7833"}, {"title": "Rubeho", "lat": "-6.2578", "long": "36.8653"}, {"title": "Mugumu", "lat": "-1.8333", "long": "34.6667"}, {"title": "Mikumi", "lat": "-7.4072", "long": "36.9722"}, {"title": "Karema", "lat": "-6.8205", "long": "30.4389"}, {"title": "Nyahanga", "lat": "-2.3829", "long": "33.5500"}, {"title": "Butiama", "lat": "-1.7667", "long": "33.9667"}, {"title": "Msata", "lat": "-6.3362", "long": "38.3850"}, {"title": "Kashasha", "lat": "-1.7578", "long": "31.6158"}, {"title": "Kilindoni", "lat": "-7.9167", "long": "39.6500"}, {"title": "Ngerengere", "lat": "-6.7500", "long": "38.1167"}, {"title": "Ihumwa", "lat": "-6.1667", "long": "35.8833"}, {"title": "Keza", "lat": "-2.7540", "long": "30.6820"}, {"title": "Ngorongoro", "lat": "-3.2496", "long": "35.5200"}, {"title": "Msoga", "lat": "-6.5667", "long": "38.3000"}, {"title": "Kibaya", "lat": "-5.3014", "long": "36.5825"}, {"title": "Nansio", "lat": "-2.1078", "long": "33.0864"}, {"title": "Mbamba Bay", "lat": "-11.2833", "long": "34.7717"}, {"title": "Mkokotoni", "lat": "-5.8800", "long": "39.2731"}, {"title": "Rudewa", "lat": "-10.1008", "long": "34.6836"}, {"title": "Oldeani", "lat": "-3.3500", "long": "35.5500"}, {"title": "Kipili", "lat": "-7.4329", "long": "30.6000"}, {"title": "Kanyato", "lat": "-4.4565", "long": "30.2614"}]