[{"title": "Port of Spain", "lat": "10.6667", "long": "-61.5167"}, {"title": "Chaguanas", "lat": "10.5167", "long": "-61.4000"}, {"title": "San Fernando", "lat": "10.2833", "long": "-61.4667"}, {"title": "Arima", "lat": "10.6333", "long": "-61.2833"}, {"title": "Couva", "lat": "10.4167", "long": "-61.4500"}, {"title": "Point Fortin", "lat": "10.1667", "long": "-61.6667"}, {"title": "Princes Town", "lat": "10.2667", "long": "-61.3833"}, {"title": "Diego Martin", "lat": "10.7167", "long": "-61.5667"}, {"title": "Scarborough", "lat": "11.1833", "long": "-60.7375"}, {"title": "Sangre Grande", "lat": "10.5667", "long": "-61.1333"}, {"title": "Tunapuna", "lat": "10.6333", "long": "-61.3833"}, {"title": "Marabella", "lat": "10.3000", "long": "-61.4500"}, {"title": "Siparia", "lat": "10.1333", "long": "-61.5000"}, {"title": "Rio Claro", "lat": "10.3042", "long": "-61.1708"}, {"title": "Debe", "lat": "10.2000", "long": "-61.4500"}, {"title": "Aranguez", "lat": "10.6472", "long": "-61.4461"}, {"title": "Laventille", "lat": "10.6500", "long": "-61.4833"}, {"title": "Gasparillo", "lat": "10.3167", "long": "-61.4167"}, {"title": "Saint Joseph", "lat": "10.6556", "long": "-61.4167"}, {"title": "Claxton Bay", "lat": "10.3405", "long": "-61.4555"}, {"title": "San Juan", "lat": "10.6500", "long": "-61.4500"}, {"title": "Fyzabad", "lat": "10.1833", "long": "-61.5500"}, {"title": "Penal", "lat": "10.1667", "long": "-61.4667"}, {"title": "Valencia", "lat": "10.6500", "long": "-61.2000"}, {"title": "Freeport", "lat": "10.4500", "long": "-61.4167"}, {"title": "Arouca", "lat": "10.6333", "long": "-61.3333"}, {"title": "Cunupia", "lat": "10.5500", "long": "-61.3667"}]