[{"title": "Kyiv", "lat": "50.4500", "long": "30.5233"}, {"title": "Kharkiv", "lat": "49.9925", "long": "36.2311"}, {"title": "Odesa", "lat": "46.4775", "long": "30.7326"}, {"title": "Dnipro", "lat": "48.4675", "long": "35.0400"}, {"title": "Donetsk", "lat": "48.0028", "long": "37.8053"}, {"title": "Zaporizhzhia", "lat": "47.8500", "long": "35.1175"}, {"title": "Lviv", "lat": "49.8425", "long": "24.0322"}, {"title": "Kryvyi Rih", "lat": "47.9086", "long": "33.3433"}, {"title": "Sevastopol", "lat": "44.6050", "long": "33.5225"}, {"title": "Mykolaiv", "lat": "46.9750", "long": "31.9950"}, {"title": "Mariupol", "lat": "47.0958", "long": "37.5494"}, {"title": "Luhansk", "lat": "48.5667", "long": "39.3333"}, {"title": "Vinnytsia", "lat": "49.2333", "long": "28.4833"}, {"title": "Simferopol", "lat": "44.9484", "long": "34.1000"}, {"title": "Makiivka", "lat": "48.0556", "long": "37.9611"}, {"title": "Poltava", "lat": "49.5894", "long": "34.5514"}, {"title": "Chernihiv", "lat": "51.4939", "long": "31.2947"}, {"title": "Kherson", "lat": "46.6425", "long": "32.6250"}, {"title": "Cherkasy", "lat": "49.4444", "long": "32.0597"}, {"title": "Khmelnytskyi", "lat": "49.4167", "long": "27.0000"}, {"title": "Zhytomyr", "lat": "50.2500", "long": "28.6667"}, {"title": "Chernivtsi", "lat": "48.3000", "long": "25.9333"}, {"title": "Sumy", "lat": "50.9167", "long": "34.7500"}, {"title": "Horlivka", "lat": "48.3336", "long": "38.0925"}, {"title": "Rivne", "lat": "50.6192", "long": "26.2519"}, {"title": "Ivano-Frankivsk", "lat": "48.9228", "long": "24.7106"}, {"title": "Kamianske", "lat": "48.5167", "long": "34.6167"}, {"title": "Kropyvnytskyi", "lat": "48.5000", "long": "32.2667"}, {"title": "Ternopil", "lat": "49.5667", "long": "25.6000"}, {"title": "Lutsk", "lat": "50.7500", "long": "25.3358"}, {"title": "Kremenchuk", "lat": "49.0631", "long": "33.4039"}, {"title": "Bila Tserkva", "lat": "49.7956", "long": "30.1167"}, {"title": "Kramatorsk", "lat": "48.7392", "long": "37.5839"}, {"title": "Melitopol", "lat": "46.8489", "long": "35.3675"}, {"title": "Sievierodonetsk", "lat": "48.9481", "long": "38.4933"}, {"title": "Kerch", "lat": "45.3619", "long": "36.4711"}, {"title": "Drohobych", "lat": "49.3500", "long": "23.5000"}, {"title": "Khrustalnyi", "lat": "48.1214", "long": "38.9453"}, {"title": "Uzhhorod", "lat": "48.6239", "long": "22.2950"}, {"title": "Berdiansk", "lat": "46.7556", "long": "36.7889"}, {"title": "Sloviansk", "lat": "48.8533", "long": "37.6059"}, {"title": "Brovary", "lat": "50.5111", "long": "30.7900"}, {"title": "Nikopol", "lat": "47.5667", "long": "34.4000"}, {"title": "Yevpatoriia", "lat": "45.1939", "long": "33.3681"}, {"title": "Pavlohrad", "lat": "48.5200", "long": "35.8700"}, {"title": "Alchevsk", "lat": "48.4778", "long": "38.7978"}, {"title": "Konotop", "lat": "51.2369", "long": "33.2027"}, {"title": "Kamianets-Podilskyi", "lat": "48.6806", "long": "26.5806"}, {"title": "Mukacheve", "lat": "48.4414", "long": "22.7136"}, {"title": "Uman", "lat": "48.7500", "long": "30.2167"}, {"title": "Chervonohrad", "lat": "50.3822", "long": "24.2275"}, {"title": "Pervomaisk", "lat": "48.0500", "long": "30.8500"}, {"title": "Khartsyzk", "lat": "48.0333", "long": "38.1500"}, {"title": "Stryi", "lat": "49.2500", "long": "23.8500"}, {"title": "Chornomorsk", "lat": "46.3017", "long": "30.6569"}, {"title": "Novohrad-Volynskyi", "lat": "50.5833", "long": "27.6333"}, {"title": "Myrnohrad", "lat": "48.2911", "long": "37.2681"}, {"title": "Rovenky", "lat": "48.0833", "long": "39.3667"}, {"title": "Myrhorod", "lat": "49.9667", "long": "33.6000"}, {"title": "Bucha", "lat": "50.5486", "long": "30.2208"}, {"title": "Chuhuiv", "lat": "49.8372", "long": "36.6899"}, {"title": "Sukhodilsk", "lat": "48.3500", "long": "39.7167"}, {"title": "Kotsyubyns'ke", "lat": "50.4883", "long": "30.3331"}, {"title": "Hostomel", "lat": "50.5893", "long": "30.2584"}, {"title": "Vynnyky", "lat": "49.8156", "long": "24.1297"}, {"title": "Hirnyk", "lat": "48.0500", "long": "37.3667"}, {"title": "Lysychansk", "lat": "48.9169", "long": "38.4306"}, {"title": "Dovzhansk", "lat": "48.0778", "long": "39.6472"}, {"title": "Oleksandriia", "lat": "48.6667", "long": "33.1167"}, {"title": "Yenakiieve", "lat": "48.2311", "long": "38.2053"}, {"title": "Yalta", "lat": "44.4994", "long": "34.1700"}, {"title": "Krasnyi Luch", "lat": "48.1333", "long": "38.9333"}, {"title": "Bakhmut", "lat": "48.5947", "long": "38.0008"}, {"title": "Shostka", "lat": "51.8657", "long": "33.4766"}, {"title": "Stakhanov", "lat": "48.5681", "long": "38.6586"}, {"title": "Berdychiv", "lat": "49.8919", "long": "28.6000"}, {"title": "Nizhyn", "lat": "51.0474", "long": "31.8805"}, {"title": "Kostiantynivka", "lat": "48.5333", "long": "37.7167"}, {"title": "Izmail", "lat": "45.3517", "long": "28.8364"}, {"title": "Novomoskovsk", "lat": "48.6328", "long": "35.2239"}, {"title": "Kovel", "lat": "51.2167", "long": "24.7167"}, {"title": "Fedosiia", "lat": "45.0489", "long": "35.3792"}, {"title": "Smila", "lat": "49.2167", "long": "31.8667"}, {"title": "Kalush", "lat": "49.0442", "long": "24.3597"}, {"title": "Korosten", "lat": "50.9500", "long": "28.6500"}, {"title": "Pokrovsk", "lat": "48.2828", "long": "37.1828"}, {"title": "Kolomyia", "lat": "48.5167", "long": "25.0333"}, {"title": "Boryspil", "lat": "50.3500", "long": "30.9500"}, {"title": "Rubizhne", "lat": "49.0336", "long": "38.3722"}, {"title": "Druzhkivka", "lat": "48.6203", "long": "37.5278"}, {"title": "Bilhorod-Dnistrovskyi", "lat": "46.1833", "long": "30.3500"}, {"title": "Irpin", "lat": "50.5167", "long": "30.2500"}, {"title": "Antratsyt", "lat": "48.1167", "long": "39.0833"}, {"title": "Lozova", "lat": "48.8892", "long": "36.3161"}, {"title": "Chystiakove", "lat": "48.0219", "long": "38.6264"}, {"title": "Enerhodar", "lat": "47.4989", "long": "34.6558"}, {"title": "Pryluky", "lat": "50.6000", "long": "32.4000"}, {"title": "Horishni Plavni", "lat": "49.0167", "long": "33.6667"}, {"title": "Novovolynsk", "lat": "50.7333", "long": "24.1667"}, {"title": "Shakhtarsk", "lat": "48.0333", "long": "38.4833"}, {"title": "Okhtyrka", "lat": "50.3074", "long": "34.9016"}, {"title": "Brianka", "lat": "48.5133", "long": "38.6431"}, {"title": "Snizhne", "lat": "48.0167", "long": "38.7667"}, {"title": "Marhanets", "lat": "47.6480", "long": "34.6167"}, {"title": "Fastiv", "lat": "50.0747", "long": "29.9181"}, {"title": "Lubny", "lat": "50.0186", "long": "32.9869"}, {"title": "Svitlovodsk", "lat": "49.0503", "long": "33.2419"}, {"title": "Nova Kakhovka", "lat": "46.7550", "long": "33.3750"}, {"title": "Zhovti Vody", "lat": "48.3500", "long": "33.5167"}, {"title": "Krasnodon", "lat": "48.3000", "long": "39.7333"}, {"title": "Shepetivka", "lat": "50.1833", "long": "27.0667"}, {"title": "Podilsk", "lat": "47.7419", "long": "29.5350"}, {"title": "Varash", "lat": "51.3444", "long": "25.8508"}, {"title": "Romny", "lat": "50.7428", "long": "33.4879"}, {"title": "Vyshneve", "lat": "50.3869", "long": "30.3581"}, {"title": "Pokrov", "lat": "47.6533", "long": "34.0842"}, {"title": "Vasylkiv", "lat": "50.1775", "long": "30.3217"}, {"title": "Dubno", "lat": "50.3931", "long": "25.7350"}, {"title": "Pervomaisk", "lat": "48.6297", "long": "38.5619"}, {"title": "Dzhankoi", "lat": "45.7086", "long": "34.3933"}, {"title": "Yuzhnoukrainsk", "lat": "47.8217", "long": "31.1750"}, {"title": "Boryslav", "lat": "49.2881", "long": "23.4267"}, {"title": "Holubivske", "lat": "48.6375", "long": "38.6433"}, {"title": "Yasynuvata", "lat": "48.1167", "long": "37.8333"}, {"title": "Netishyn", "lat": "50.3300", "long": "26.6400"}, {"title": "Zhmerynka", "lat": "49.0500", "long": "28.1000"}, {"title": "Avdiivka", "lat": "48.1333", "long": "37.7500"}, {"title": "Kakhovka", "lat": "46.8000", "long": "33.4667"}, {"title": "Toretsk", "lat": "48.3917", "long": "37.8733"}, {"title": "Sambir", "lat": "49.5167", "long": "23.2000"}, {"title": "Boyarka", "lat": "50.3292", "long": "30.2886"}, {"title": "Voznesensk", "lat": "47.5725", "long": "31.3119"}, {"title": "Hlukhiv", "lat": "51.6765", "long": "33.9078"}, {"title": "Obukhiv", "lat": "50.1109", "long": "30.6269"}, {"title": "Yuzhne", "lat": "46.6300", "long": "31.1000"}, {"title": "Mohyliv-Podilskyi", "lat": "48.4500", "long": "27.7833"}, {"title": "Kostopil", "lat": "50.8833", "long": "26.4431"}, {"title": "Tokmak", "lat": "47.2514", "long": "35.7058"}, {"title": "Novoyavorovskoye", "lat": "49.9311", "long": "23.5731"}, {"title": "Synelnykove", "lat": "48.3178", "long": "35.5119"}, {"title": "Pervomaiskyi", "lat": "49.3869", "long": "36.2142"}, {"title": "Vyshhorod", "lat": "50.5833", "long": "30.4853"}, {"title": "Alushta", "lat": "44.6672", "long": "34.3978"}, {"title": "Khmilnyk", "lat": "49.5569", "long": "27.9572"}, {"title": "Truskavets", "lat": "49.2806", "long": "23.5050"}, {"title": "Balakliia", "lat": "49.4564", "long": "36.8389"}, {"title": "Novyi Rozdil", "lat": "49.4703", "long": "24.1300"}, {"title": "Chortkiv", "lat": "49.0167", "long": "25.8000"}, {"title": "Pershotravensk", "lat": "48.3464", "long": "36.4044"}, {"title": "Khust", "lat": "48.1814", "long": "23.2978"}, {"title": "Khrestivka", "lat": "48.1464", "long": "38.3606"}, {"title": "Kupiansk", "lat": "49.7064", "long": "37.6167"}, {"title": "Ternivka", "lat": "48.5231", "long": "36.0826"}, {"title": "Zolotonosha", "lat": "49.6833", "long": "32.0333"}, {"title": "Bakhchysarai", "lat": "44.7528", "long": "33.8608"}, {"title": "Pereyaslav-Khmel'nyts'kyy", "lat": "50.0650", "long": "31.4450"}, {"title": "Sofiyivs'ka Borshchahivka", "lat": "50.4114", "long": "30.3692"}, {"title": "Kirovsk", "lat": "48.6333", "long": "38.6500"}, {"title": "Perevalsk", "lat": "48.4333", "long": "38.8167"}, {"title": "Malyn", "lat": "50.7689", "long": "29.2700"}, {"title": "Haisyn", "lat": "48.8094", "long": "29.3906"}, {"title": "Yany Kapu", "lat": "45.9675", "long": "33.8003"}, {"title": "Vynohradiv", "lat": "48.1397", "long": "23.0331"}, {"title": "Korostyshiv", "lat": "50.3186", "long": "29.0592"}, {"title": "Saky", "lat": "45.1336", "long": "33.5772"}, {"title": "Slavutych", "lat": "51.5206", "long": "30.7569"}, {"title": "Oleshky", "lat": "46.6333", "long": "32.5833"}, {"title": "Kaniv", "lat": "49.7447", "long": "31.4558"}, {"title": "Selydove", "lat": "48.1500", "long": "37.3000"}, {"title": "Lebedyn", "lat": "50.5831", "long": "34.4823"}, {"title": "Zolochiv", "lat": "49.8075", "long": "24.9031"}, {"title": "Berehove", "lat": "48.2025", "long": "22.6375"}, {"title": "Brody", "lat": "50.0781", "long": "25.1542"}, {"title": "Koziatyn", "lat": "49.7167", "long": "28.8333"}, {"title": "Pesochin", "lat": "49.9539", "long": "36.1092"}, {"title": "Vilnohirsk", "lat": "48.4781", "long": "34.0281"}, {"title": "Molodohvardiisk", "lat": "48.3444", "long": "39.6583"}, {"title": "Dokuchaievsk", "lat": "47.7506", "long": "37.6716"}, {"title": "Znamianka", "lat": "48.7136", "long": "32.6733"}, {"title": "Ladyzhyn", "lat": "48.6897", "long": "29.2417"}, {"title": "Nadvirna", "lat": "48.6333", "long": "24.5833"}, {"title": "Lyman", "lat": "48.9853", "long": "37.8111"}, {"title": "Merefa", "lat": "49.8197", "long": "36.0686"}, {"title": "Bilohorodka", "lat": "50.4000", "long": "30.2167"}, {"title": "Volnovakha", "lat": "47.5994", "long": "37.4999"}, {"title": "Sokal", "lat": "50.4833", "long": "24.2833"}, {"title": "Liubotyn", "lat": "49.9489", "long": "35.9306"}, {"title": "Kremenets", "lat": "50.1081", "long": "25.7275"}, {"title": "Polonne", "lat": "50.1167", "long": "27.5167"}, {"title": "Dolyna", "lat": "48.9703", "long": "24.0108"}, {"title": "Stebnyk", "lat": "49.3000", "long": "23.5667"}, {"title": "Krasnohrad", "lat": "49.3719", "long": "35.4569"}, {"title": "Trostyanets'", "lat": "50.4811", "long": "34.9646"}, {"title": "Yahotyn", "lat": "50.2569", "long": "31.7817"}, {"title": "Okhmalynka", "lat": "47.5333", "long": "29.4500"}, {"title": "Pidhorodne", "lat": "48.5737", "long": "35.0966"}, {"title": "Balta", "lat": "47.9361", "long": "29.6225"}, {"title": "Henichesk", "lat": "46.1667", "long": "34.8000"}, {"title": "Dolynska", "lat": "48.1111", "long": "32.7648"}, {"title": "Kalynivka", "lat": "49.4472", "long": "28.5231"}, {"title": "Polohy", "lat": "47.4796", "long": "36.2611"}, {"title": "Piatykhatky", "lat": "48.4126", "long": "33.7034"}, {"title": "Starobilsk", "lat": "49.2829", "long": "38.8974"}, {"title": "Kiliia", "lat": "45.4500", "long": "29.2667"}, {"title": "Vovchansk", "lat": "50.2881", "long": "36.9461"}, {"title": "Kivsharivka", "lat": "49.6303", "long": "37.6908"}, {"title": "Dniprorudne", "lat": "47.3907", "long": "35.0027"}, {"title": "Bakhmach", "lat": "51.1810", "long": "32.8163"}, {"title": "Korsun-Shevchenkivskyi", "lat": "49.4261", "long": "31.2806"}, {"title": "Kreminna", "lat": "49.0500", "long": "38.2167"}, {"title": "Amvrosiivka", "lat": "47.7958", "long": "38.4801"}, {"title": "Svatove", "lat": "49.4150", "long": "38.1550"}, {"title": "Zuhres", "lat": "48.0181", "long": "38.2563"}, {"title": "Reni", "lat": "45.4575", "long": "28.2711"}, {"title": "Derhachi", "lat": "50.1114", "long": "36.1219"}, {"title": "Skadovsk", "lat": "46.1167", "long": "32.9167"}, {"title": "Bolhrad", "lat": "45.6855", "long": "28.6134"}, {"title": "Berezhany", "lat": "49.4464", "long": "24.9436"}, {"title": "Svalyava", "lat": "48.5472", "long": "22.9861"}, {"title": "Zvenyhorodka", "lat": "49.0833", "long": "30.9667"}, {"title": "Vatutine", "lat": "49.0167", "long": "31.0667"}, {"title": "Iziaslav", "lat": "50.1167", "long": "26.8000"}, {"title": "Sudak", "lat": "44.8514", "long": "34.9725"}, {"title": "Berezan", "lat": "50.3197", "long": "31.4700"}, {"title": "Horodok", "lat": "49.1667", "long": "26.5667"}, {"title": "Bilohirsk", "lat": "45.0544", "long": "34.6022"}, {"title": "Verkhivtseve", "lat": "48.4812", "long": "34.2488"}, {"title": "Novoukrainka", "lat": "48.3156", "long": "31.5269"}, {"title": "Horodok", "lat": "49.7822", "long": "23.6436"}, {"title": "Bar", "lat": "49.0781", "long": "27.6831"}, {"title": "Ukrainka", "lat": "50.1500", "long": "30.7519"}, {"title": "Taromske", "lat": "48.4619", "long": "34.7829"}, {"title": "Chornobaivka", "lat": "46.7006", "long": "32.5478"}, {"title": "Chervonopartyzansk", "lat": "48.0833", "long": "39.7833"}, {"title": "Dunaivtsi", "lat": "48.8873", "long": "26.8476"}, {"title": "Skvyra", "lat": "49.7333", "long": "29.6833"}, {"title": "Yuvileine", "lat": "48.5531", "long": "39.1742"}, {"title": "Ovruch", "lat": "51.3244", "long": "28.8081"}, {"title": "Verkhnodniprovsk", "lat": "48.6561", "long": "34.3283"}, {"title": "Putyvl", "lat": "51.3347", "long": "33.8686"}, {"title": "Ostroh", "lat": "50.3333", "long": "26.5167"}, {"title": "Rakhiv", "lat": "48.0500", "long": "24.2167"}, {"title": "Bohodukhiv", "lat": "50.1608", "long": "35.5164"}, {"title": "Ilovaisk", "lat": "47.9250", "long": "38.1950"}, {"title": "Hola Prystan", "lat": "46.5167", "long": "32.5167"}, {"title": "Burshtyn", "lat": "49.2600", "long": "24.6350"}, {"title": "Tulchyn", "lat": "48.6744", "long": "28.8497"}, {"title": "Vil'nyans'k", "lat": "47.9445", "long": "35.4331"}, {"title": "Mykolaiv", "lat": "49.5247", "long": "23.9789"}, {"title": "Novyi Buh", "lat": "47.6833", "long": "32.5000"}, {"title": "Krasnohorivka", "lat": "48.0116", "long": "37.5041"}, {"title": "Nyzhnia Krynka", "lat": "48.1144", "long": "38.1606"}, {"title": "Vuhledar", "lat": "47.7794", "long": "37.2475"}, {"title": "Ochakiv", "lat": "46.6186", "long": "31.5392"}, {"title": "Hulyaypole", "lat": "47.6644", "long": "36.2632"}, {"title": "Radomyshl", "lat": "50.4947", "long": "29.2333"}, {"title": "Stanytsia Luhanska", "lat": "48.6449", "long": "39.4958"}, {"title": "Orikhiv", "lat": "47.5677", "long": "35.7849"}, {"title": "Zolote", "lat": "48.6833", "long": "38.5167"}, {"title": "Sadovoye", "lat": "46.1269", "long": "30.3850"}, {"title": "Novohrodivka", "lat": "48.2000", "long": "37.3394"}, {"title": "Storozhynets", "lat": "48.1597", "long": "25.7150"}, {"title": "Kivertsi", "lat": "50.8331", "long": "25.4614"}, {"title": "Petrovske", "lat": "48.2833", "long": "38.8833"}, {"title": "Antonivka", "lat": "46.6791", "long": "32.7228"}, {"title": "Zhovkva", "lat": "50.0667", "long": "23.9667"}, {"title": "Zhashkiv", "lat": "49.2500", "long": "30.1000"}, {"title": "Horodyshche", "lat": "49.2925", "long": "31.4581"}, {"title": "Apostolove", "lat": "47.6595", "long": "33.7170"}, {"title": "Solonytsivka", "lat": "49.9942", "long": "36.0264"}, {"title": "Bunhe", "lat": "48.2206", "long": "38.2739"}, {"title": "Talne", "lat": "48.8863", "long": "30.7027"}, {"title": "Kaharlyk", "lat": "49.8522", "long": "30.8092"}, {"title": "Zelenodolsk", "lat": "47.5631", "long": "33.6524"}, {"title": "Berezne", "lat": "51.0000", "long": "26.7500"}, {"title": "Nosivka", "lat": "50.9300", "long": "31.5800"}, {"title": "Borodyanka", "lat": "50.6474", "long": "29.9258"}, {"title": "Terebovlya", "lat": "49.3000", "long": "25.7000"}, {"title": "Kamianka", "lat": "49.0333", "long": "32.1000"}, {"title": "Slobozhanske", "lat": "48.5342", "long": "35.0749"}, {"title": "Vasylivka", "lat": "47.4435", "long": "35.2802"}, {"title": "Velykodolynske", "lat": "46.3425", "long": "30.5653"}, {"title": "Tetiiv", "lat": "49.3708", "long": "29.6900"}, {"title": "Zhdanivka", "lat": "48.1500", "long": "38.2500"}, {"title": "Rozhyshche", "lat": "50.9131", "long": "25.2700"}, {"title": "Yavoriv", "lat": "49.9469", "long": "23.3931"}, {"title": "Novhorod-Siverskyi", "lat": "51.9972", "long": "33.2667"}, {"title": "Bershad", "lat": "48.3728", "long": "29.5325"}, {"title": "Perehinske", "lat": "48.8103", "long": "24.1819"}, {"title": "Hvardiiske", "lat": "45.1142", "long": "34.0142"}, {"title": "Kamianka-Dniprovska", "lat": "47.4922", "long": "34.4106"}, {"title": "Shchastia", "lat": "48.7381", "long": "39.2311"}, {"title": "Buchach", "lat": "49.0647", "long": "25.3872"}, {"title": "Koriukivka", "lat": "51.7753", "long": "32.2497"}, {"title": "Kamin-Kashyrskyi", "lat": "51.6242", "long": "24.9606"}, {"title": "Hnivan", "lat": "49.0833", "long": "28.3500"}, {"title": "Beryslav", "lat": "46.8333", "long": "33.4167"}, {"title": "Uzyn", "lat": "49.8242", "long": "30.4425"}, {"title": "Snihurivka", "lat": "47.0708", "long": "32.7997"}, {"title": "Bilovodsk", "lat": "49.2076", "long": "39.5913"}, {"title": "Mykhailivka", "lat": "47.2717", "long": "35.2248"}, {"title": "Sartana", "lat": "47.1708", "long": "37.6954"}, {"title": "Ukrainsk", "lat": "48.1000", "long": "37.3667"}, {"title": "Horodnia", "lat": "51.8924", "long": "31.5954"}, {"title": "Ovidiopol", "lat": "46.2667", "long": "30.4333"}, {"title": "Baranivka", "lat": "50.3000", "long": "27.6667"}, {"title": "Bilopillya", "lat": "51.1474", "long": "34.3025"}, {"title": "Vasylkivka", "lat": "48.2084", "long": "36.0253"}, {"title": "Nemyriv", "lat": "48.9794", "long": "28.8439"}, {"title": "Vakhrusheve", "lat": "48.1667", "long": "38.8333"}, {"title": "Prymorsk", "lat": "46.7353", "long": "36.3473"}, {"title": "Mena", "lat": "51.5167", "long": "32.2167"}, {"title": "Mala Vyska", "lat": "48.6500", "long": "31.6333"}, {"title": "Kalmiuske", "lat": "47.6667", "long": "38.0667"}, {"title": "Lokhvytsya", "lat": "50.3610", "long": "33.2652"}, {"title": "Myronivka", "lat": "49.6500", "long": "30.9833"}, {"title": "Yakymivka", "lat": "46.6977", "long": "35.1554"}, {"title": "Snovsk", "lat": "51.8203", "long": "31.9508"}, {"title": "Illintsi", "lat": "49.1000", "long": "29.2000"}, {"title": "Svitlodarsk", "lat": "48.4358", "long": "38.2164"}, {"title": "Sosnivka", "lat": "50.2946", "long": "24.2525"}, {"title": "Haspra", "lat": "44.4361", "long": "34.1106"}, {"title": "Chornomorske", "lat": "45.5019", "long": "32.7025"}, {"title": "Zhydachiv", "lat": "49.3833", "long": "24.1333"}, {"title": "Rokytne", "lat": "49.6897", "long": "30.4751"}, {"title": "Hurzuf", "lat": "44.5528", "long": "34.2875"}, {"title": "Bobrovytsia", "lat": "50.7424", "long": "31.3860"}, {"title": "Bobrynets", "lat": "48.0578", "long": "32.1581"}, {"title": "Nova Vodolaha", "lat": "49.7197", "long": "35.8772"}, {"title": "Novgorodskoye", "lat": "48.3328", "long": "37.8369"}, {"title": "Manevychi", "lat": "51.2925", "long": "25.5503"}, {"title": "Borshchiv", "lat": "48.8024", "long": "26.0400"}, {"title": "Hrebinka", "lat": "50.1180", "long": "32.4396"}, {"title": "Yampil", "lat": "48.2450", "long": "28.2778"}, {"title": "Baryshivka", "lat": "50.3703", "long": "31.3286"}, {"title": "Khrystynivka", "lat": "48.8333", "long": "29.9667"}, {"title": "Kurman", "lat": "45.4978", "long": "34.2950"}, {"title": "Ichnia", "lat": "50.8500", "long": "32.4000"}, {"title": "Inkerman", "lat": "44.6142", "long": "33.6083"}, {"title": "Novotroitske", "lat": "46.3544", "long": "34.3361"}, {"title": "Novodnistrovsk", "lat": "48.5778", "long": "27.4414"}, {"title": "Bolekhiv", "lat": "49.0669", "long": "23.8514"}, {"title": "Lyuboml'", "lat": "51.2158", "long": "24.0408"}, {"title": "Olevsk", "lat": "51.2278", "long": "27.6481"}, {"title": "Ivankiv", "lat": "50.9328", "long": "29.9047"}, {"title": "Krasnoilsk", "lat": "48.0167", "long": "25.5833"}, {"title": "Tavriisk", "lat": "46.7559", "long": "33.4247"}, {"title": "Letychiv", "lat": "49.3833", "long": "27.6167"}, {"title": "Korolevo", "lat": "48.1500", "long": "23.1333"}, {"title": "Bilenke", "lat": "48.7664", "long": "37.6314"}, {"title": "Oster", "lat": "50.9486", "long": "30.8811"}, {"title": "Radyvyliv", "lat": "50.1286", "long": "25.2644"}, {"title": "Tarashcha", "lat": "49.5500", "long": "30.5000"}, {"title": "Sniatyn", "lat": "48.4500", "long": "25.5667"}, {"title": "Shyroke", "lat": "47.6882", "long": "33.2654"}, {"title": "Borzna", "lat": "51.2539", "long": "32.4261"}, {"title": "Teplodar", "lat": "46.5036", "long": "30.3244"}, {"title": "Vysokyi", "lat": "49.8850", "long": "36.1111"}, {"title": "Shpola", "lat": "49.0333", "long": "31.4167"}, {"title": "Sofiivka", "lat": "48.2683", "long": "38.1847"}, {"title": "Dubove", "lat": "48.1781", "long": "23.8863"}, {"title": "Ratne", "lat": "51.6500", "long": "24.5333"}, {"title": "Pereshchepyne", "lat": "49.0179", "long": "35.3598"}, {"title": "Pokrovske", "lat": "47.9853", "long": "36.2367"}, {"title": "Zinkiv", "lat": "50.2081", "long": "34.3668"}, {"title": "Kobeliaky", "lat": "49.1474", "long": "34.1993"}, {"title": "Berezivka", "lat": "47.2039", "long": "30.9125"}, {"title": "Makariv", "lat": "50.4648", "long": "29.8072"}, {"title": "Radekhiv", "lat": "50.2828", "long": "24.6375"}, {"title": "Vesele", "lat": "47.0189", "long": "34.9212"}, {"title": "Khodoriv", "lat": "49.4100", "long": "24.3094"}, {"title": "Izium", "lat": "49.1958", "long": "37.2803"}, {"title": "Bilozerka", "lat": "46.6317", "long": "32.4452"}, {"title": "Mizhhiria", "lat": "48.5286", "long": "23.5019"}, {"title": "Velyka Dymerka", "lat": "50.5928", "long": "30.9103"}, {"title": "Bezliudivka", "lat": "49.8694", "long": "36.2719"}, {"title": "Chaplynka", "lat": "46.3629", "long": "33.5302"}, {"title": "Pohrebyshche", "lat": "49.4869", "long": "29.2733"}, {"title": "Pokotylivka", "lat": "49.9139", "long": "36.1750"}, {"title": "Cherniakhiv", "lat": "50.4550", "long": "28.6653"}, {"title": "Nyzhnohirskyi", "lat": "45.4464", "long": "34.7344"}, {"title": "Dubrovytsya", "lat": "51.5667", "long": "26.5667"}, {"title": "Tysmenytsia", "lat": "48.9008", "long": "24.8492"}, {"title": "Irshava", "lat": "48.3172", "long": "23.0375"}, {"title": "Khotyn", "lat": "48.5078", "long": "26.4860"}, {"title": "Masandra", "lat": "44.5167", "long": "34.1833"}, {"title": "Velykyi Bychkiv", "lat": "47.9714", "long": "24.0047"}, {"title": "Horodenka", "lat": "48.6675", "long": "25.5003"}, {"title": "Valky", "lat": "49.8386", "long": "35.6217"}, {"title": "Reshetylivka", "lat": "49.5636", "long": "34.0763"}, {"title": "Kalanchak", "lat": "46.2581", "long": "33.2843"}, {"title": "Obukhivka", "lat": "48.5442", "long": "34.8664"}, {"title": "Stryzhavka", "lat": "49.3103", "long": "28.4808"}, {"title": "Horokhiv", "lat": "50.4994", "long": "24.7650"}, {"title": "Velyki Luchky", "lat": "48.4200", "long": "22.5611"}, {"title": "Tiachiv", "lat": "48.0114", "long": "23.5722"}, {"title": "Zalishchyky", "lat": "48.6392", "long": "25.7374"}, {"title": "Kozova", "lat": "49.4318", "long": "25.1544"}, {"title": "Uspenka", "lat": "48.3939", "long": "39.1536"}, {"title": "Pomichna", "lat": "48.2500", "long": "31.4167"}, {"title": "Chop", "lat": "48.4333", "long": "22.2000"}, {"title": "Monastyryshche", "lat": "48.9900", "long": "29.8011"}, {"title": "Tlumach", "lat": "48.8669", "long": "25.0012"}, {"title": "Ilarionove", "lat": "48.4059", "long": "35.2734"}, {"title": "Hlevakha", "lat": "50.2604", "long": "30.3057"}, {"title": "Kryzhopil", "lat": "48.3842", "long": "28.8625"}, {"title": "Sokyriany", "lat": "48.4500", "long": "27.4167"}, {"title": "Rava-Rus'ka", "lat": "50.2500", "long": "23.6167"}, {"title": "Solotvyno", "lat": "47.9597", "long": "23.8669"}, {"title": "Andriivka", "lat": "49.5325", "long": "36.6219"}, {"title": "Chyhyryn", "lat": "49.0833", "long": "32.6667"}, {"title": "Busk", "lat": "49.9667", "long": "24.6167"}, {"title": "Barvynkove", "lat": "48.9067", "long": "37.0131"}, {"title": "Bushtyno", "lat": "48.0503", "long": "23.4894"}, {"title": "Andrushivka", "lat": "50.0167", "long": "29.0167"}, {"title": "Yasinia", "lat": "48.2728", "long": "24.3747"}, {"title": "Kosiv", "lat": "48.3150", "long": "25.0953"}, {"title": "Syurte", "lat": "48.5033", "long": "22.2319"}, {"title": "Nerubaiske", "lat": "46.5467", "long": "30.6306"}]