[{"title": "Port-Vila", "lat": "-17.7333", "long": "168.3167"}, {"title": "Luganville", "lat": "-15.5333", "long": "167.1667"}, {"title": "Isangel", "lat": "-19.5300", "long": "169.2800"}, {"title": "Lakatoro", "lat": "-16.1069", "long": "167.4208"}, {"title": "Saratamata", "lat": "-15.2875", "long": "167.9903"}, {"title": "Sola", "lat": "-13.8750", "long": "167.5500"}]