[{"title": "Lusaka", "lat": "-15.4167", "long": "28.2833"}, {"title": "Ndola", "lat": "-12.9667", "long": "28.6333"}, {"title": "Kitwe", "lat": "-12.8167", "long": "28.2000"}, {"title": "Kafue", "lat": "-15.7667", "long": "28.1833"}, {"title": "Mazabuka", "lat": "-15.8467", "long": "27.7475"}, {"title": "Kasama", "lat": "-10.2117", "long": "31.1783"}, {"title": "Mongu", "lat": "-15.2775", "long": "23.1319"}, {"title": "Kashikishi", "lat": "-9.3000", "long": "28.7167"}, {"title": "Chingola", "lat": "-12.5333", "long": "27.8500"}, {"title": "Nchelenge", "lat": "-9.3533", "long": "28.7403"}, {"title": "Livingstone", "lat": "-17.8500", "long": "25.8667"}, {"title": "Mansa", "lat": "-11.2000", "long": "28.8833"}, {"title": "Mufulira", "lat": "-12.5356", "long": "28.2419"}, {"title": "Bwana Mkubwa", "lat": "-12.9833", "long": "28.7000"}, {"title": "Kabwe", "lat": "-14.4333", "long": "28.4500"}, {"title": "Luanshya", "lat": "-13.1333", "long": "28.4000"}, {"title": "Mporokoso", "lat": "-9.3833", "long": "30.1000"}, {"title": "Chipata", "lat": "-13.6453", "long": "32.6464"}, {"title": "Solwezi", "lat": "-12.1433", "long": "26.3858"}, {"title": "Choma", "lat": "-16.7711", "long": "26.9922"}, {"title": "Chinsali", "lat": "-10.5522", "long": "32.0692"}, {"title": "Chililabombwe", "lat": "-12.3667", "long": "27.8278"}, {"title": "Chirundu", "lat": "-16.0500", "long": "28.8333"}, {"title": "Kapiri Mposhi", "lat": "-13.9772", "long": "28.6847"}, {"title": "Mpika", "lat": "-11.8300", "long": "31.4600"}, {"title": "Mbala", "lat": "-8.8333", "long": "31.3833"}, {"title": "Kawambwa", "lat": "-9.7914", "long": "29.0789"}, {"title": "Sesheke", "lat": "-17.4667", "long": "24.3000"}, {"title": "Mumbwa", "lat": "-14.9853", "long": "27.0619"}, {"title": "Mwinilunga", "lat": "-11.7172", "long": "24.4289"}, {"title": "Chifubu", "lat": "-12.9333", "long": "28.6167"}, {"title": "Kaoma", "lat": "-14.8000", "long": "24.8000"}, {"title": "Chilonga", "lat": "-12.0244", "long": "31.3364"}, {"title": "Lundazi", "lat": "-12.3000", "long": "33.1833"}, {"title": "Kasempa", "lat": "-13.4550", "long": "25.8350"}, {"title": "Nakonde", "lat": "-9.3272", "long": "32.7583"}, {"title": "Senanga", "lat": "-16.1167", "long": "23.2667"}, {"title": "Kalabo", "lat": "-14.9911", "long": "22.6789"}, {"title": "Zambezi", "lat": "-13.5500", "long": "23.1167"}, {"title": "Lukulu", "lat": "-14.4083", "long": "23.2667"}, {"title": "Nyimba", "lat": "-14.5495", "long": "30.8100"}]